,longitude,latitude,name,park_type,dates_open,comments,num_sites,elevation,amenities,state,nearest_town_distance,nearest_town_bearing,city
188,-95.455,43.5,Iowa Lake Co Park,CP,nan,nan,120,1505.0,E DP SH NR,IA,4.0,N,Harris
344,-95.623,43.084,Primghar City Park,CP,nan,nan,15,1506.0,E DP FT DW SH,IA,0.3,SE,Primghar
363,-95.736,43.399,Robinson Park,CP,nan,restrooms may not be clean,13,1508.0,WE DP DW SH L$,IA,0.8,E,Sibley
775,-100.761,37.148,Arkalon Park,CP,nan,nan,100,2549.0,WE DP DW SH,KS,11.4,NE,Liberal
779,-101.042,39.818,Atwood Lions Club Park,CP,nan,nan,9,2838.0,E DP DW SH,KS,0.8,N,Atwood
780,-101.042,39.815,Atwood Lions Park,CP,nan,nan,nan,2835.0,E FT DW SH,KS,0.5,N,Atwood
784,-101.257,37.898,Beymer Water Recreation Park,CP,nan,nan,8,2999.0,WE FT DW L$,KS,2.9,S,Lakin
789,-100.0,38.069,Buckner Valley Park,CP,nan,nan,nan,2343.0,E DW,KS,5.9,W,Jetmore
791,-99.168,38.177,Camp Pawnee,CP,early apr-mid oct,nan,12,2024.0,E FT DW,KS,3.8,W,Larned
796,-99.732,38.808,Cedar Bluff State Park - North Shore,SP,all year,nan,254,2168.0,E DP SH RS,KS,12.9,SW,Ellis
797,-99.764,38.772,Cedar Bluff State Park - South Shore,SP,all year,nan,315,2194.0,RS,KS,9.1,N,Brownell
804,-101.894,37.119,Cimarron,NF,nan,nan,14,3389.0,NH ND NS NR,KS,7.7,N,Elkhart
816,-99.947,37.775,Dodge City Roadside Park,CP,nan,nan,5,2523.0,NH ND NS,KS,4.1,E,Dodge City
822,-98.589,38.361,Ellinwood City Park,CP,nan,nan,5,1788.0,E DP DW L$,KS,0.6,NW,Ellinwood
823,-99.558,38.94,Ellis Lakeside City Campground,CP,nan,nan,18,2116.0,WE DP DW SH,KS,0.2,NE,Ellis
830,-101.337,37.564,Frazier Park,CP,nan,nan,nan,2976.0,E DP FT DW,KS,1.5,SE,Ulysses
847,-97.991,38.667,Horsethief - Kanopolis State Park,SP,all year,nan,320,1581.0,E RS,KS,11.5,NW,Marquette
851,-99.958,38.052,Jetmore City Lake,CP,nan,nan,15,2340.0,E DP,KS,4.2,SW,Jetmore
852,-98.282,39.698,Jewell State Fishing Lake,SP,all year,primitive sites around lake,nan,1679.0,NH ND PT NS,KS,7.1,W,Jewell
856,-100.002,39.786,Keith Sebelius Lake RA,BOR,nan,nan,nan,2324.0,NH ND NS NR,KS,6.7,SW,Norton
860,-99.344,37.246,Lake Coldwater,CP,nan,nan,nan,2013.0,E DP DW SH,KS,1.9,SW,Coldwater
867,-99.579,39.628,Logan Lake City Park,CP,nan,nan,nan,2041.0,E,KS,2.4,S,Logan
872,-98.051,39.905,Lovewell State Park,SP,all year,nan,425,1598.0,E SH RS,KS,2.3,S,Webber
873,-98.503,38.969,Lucas - Wilson Reservoir,COE,all year,nan,100,1590.0,WE DP 60ft DW SH RS,KS,6.3,S,Lucas
874,-98.692,39.119,Luray North City Park,CP,nan,nan,nan,1587.0,E L$,KS,0.6,N,Luray
875,-98.21,38.34,Lyons City Campground,CP,nan,nan,25,1688.0,E DP FT DW SH N$,KS,0.6,SW,Lyons
876,-98.155,39.67,MAAG Memorial Park,CP,nan,RV parking,nan,1555.0,E DP DW SH L$,KS,0.1,SW,Jewell
886,-100.328,37.284,Meade City Park,CP,nan,nan,nan,2428.0,NH DP N$,KS,0.7,E,Meade
887,-100.438,37.164,Meade State Park,SP,all year,nan,190,2482.0,E RS,KS,10.0,SW,Meade
892,-98.59,38.936,Minooka - Wilson Reservoir,COE,all year,nan,220,1570.0,WE DP DW SH RS,KS,6.2,N,Dorrance
909,-99.335,39.755,Phillipsburg City Park,CP,nan,nan,nan,1870.0,E DP DW SH L$,KS,0.6,W,Phillipsburg
913,-99.951,39.807,Prairie Dog State Park,SP,all year,nan,190,2352.0,E DP DW SH RS,KS,3.7,SW,Norton
914,-100.452,37.596,Prairie Wind RV Park,CP,nan,nan,5,2779.0,WES DP NR,KS,0.5,W,Montezuma
915,-98.684,37.63,Pratt County Veterans Memorial Park,CP,nan,nan,17,1805.0,WE DP DW RS L$,KS,3.1,E,Pratt
930,-97.622,39.829,Rocky Pond City Park,CP,nan,nan,nan,1510.0,WE DW SH,KS,0.6,NE,Belleville
937,-100.495,39.839,Sappa Park,CP,all year,nan,5,2526.0,E NW,KS,2.3,NE,Oberlin
939,-100.918,38.668,Scott State Park,SP,all year,nan,150,2819.0,nan,KS,12.8,N,Scott City
942,-100.236,39.36,Sheridan State Fishing Lake,SP,all year,primitive sites near lake,nan,2538.0,NH ND VT NS,KS,11.0,E,Hoxie
944,-98.794,39.785,Smith Center Roadside Area,CP,nan,nan,nan,1785.0,NH ND NS N$,KS,0.6,NW,Smith Center
948,-101.8,39.767,St. Francis City Campground,CP,nan,nan,nan,3368.0,E DP SH,KS,0.5,S,St. Francis
949,-98.202,38.205,Sterling Lake Park,CP,nan,nan,14,1639.0,WES DP FT DW SH NR,KS,0.4,SE,Sterling
951,-99.28,39.435,Stockton City Park,CP,nan,nan,5,1759.0,WE DP FT DW SH RS,KS,0.8,W,Stockton
955,-101.759,37.961,Syracuse Sand Dunes,CP,nan,nan,nan,3225.0,WE NR,KS,1.4,S,Syracuse
965,-97.988,38.633,Venango - Kanapolis Reservoir,COE,early may-late dec,nan,nan,1501.0,WE DP 65ft FT DW SH RS PA,KS,9.9,NW,Marquette
971,-99.449,39.41,Webster State Park,SP,all year,nan,10,1929.0,WE ND DW NS RS,KS,10.0,W,Stockton
977,-98.495,38.909,Wilson State Park,SP,all year,nan,300,1581.0,E RS,KS,8.8,SW,Sylvan Grove
981,-98.588,38.354,Wolf Pond Park,CP,nan,nan,nan,1788.0,WE L$,KS,0.4,W,Ellinwood
983,-98.014,38.644,Yankee Run - Kanopolis Lake,COE,nan,unknown facilities,nan,1501.0,NH ND NS NR,KS,25.6,SW,Salina
1006,-88.59,46.129,Bates Township Park - Sunset Lake,CP,nan,nan,13,1583.0,NH ND DW SH L$,MI,3.6,NE,Iron River
1039,-89.673,46.359,Bobcat Lake,NF,nan,nan,12,1574.0,NH NR,MI,5.8,SW,Marenisco
1051,-89.053,46.314,Burned Dam,NF,all year,nan,5,1561.0,NH ND NS NR N$,MI,6.8,NE,Watersmeet
1091,-88.324,46.325,Deer Lake - State Forest,SF,all year,open all year but snow may block,12,1569.0,NH NR,MI,15.7,N,Crystal Falls
1104,-89.94,46.484,Eddy Park - Sunday Lake,CP,nan,nan,79,1525.0,WE DW SH L$,MI,0.6,N,Wakefield
1136,-88.883,46.172,Golden Lake,NF,nan,nan,22,1641.0,NH NR,MI,12.7,NW,Iron River
1159,-89.79,46.332,Henry Lake,NF,nan,nan,11,1600.0,NH NR,MI,11.6,SW,Marenisco
1180,-89.071,46.218,Imp Lake,NF,nan,nan,22,1708.0,NH NR,MI,6.2,SE,Watersmeet
1196,-88.402,46.531,King Lake - Copper County State Forest,SF,all year,open all year but snow may block,6,1662.0,NH NR,MI,6.5,E,Covington
1214,-90.16,46.149,Lake of the Falls County Park,CP,nan,nan,35,1578.0,E DW,MI,4.8,W,Mercer
1215,-88.76,46.081,Lake Ottawa,NF,nan,nan,32,1551.0,NH DP NR,MI,5.7,W,Iron River
1216,-88.723,46.393,Lake Ste. Kathryn,NF,nan,nan,24,1562.0,NH NR,MI,15.1,SE,Trout Creek
1219,-89.493,46.272,Langford Lake,NF,nan,nan,11,1673.0,NH NR,MI,15.0,W,Watersmeet
1248,-89.093,46.268,Marion Lake 1,NF,nan,nan,9,1634.0,NH ND NS NR,MI,4.1,E,Watersmeet
1249,-89.083,46.267,Marion Lake 2,NF,nan,nan,30,1654.0,NH NR,MI,4.6,E,Watersmeet
1274,-88.073,46.458,Moose Rapids Township,CP,nan,rustic,nan,1528.0,NH ND PT NW NS NR,MI,5.8,NW,North Republic
1275,-89.604,46.242,Moosehead Lake,NF,nan,nan,13,1685.0,NH NR,MI,11.1,S,Marenisco
1293,-88.682,46.416,Norway Lake,NF,nan,nan,25,1525.0,NH ND VT DW NS NR,MI,6.3,S,Sidnaw
1318,-88.674,46.364,Perch Lake,NF,nan,nan,24,1556.0,NH NR,MI,12.4,S,Watton
1346,-89.574,46.282,Pomeroy Lake,NF,nan,nan,17,1631.0,NH NR,MI,18.9,W,Watersmeet
1415,-89.322,46.24,Sylvania - Clark Lake,NF,nan,nan,48,1829.0,NH DP DW SH NR,MI,7.1,W,Watersmeet
1420,-88.875,46.389,Tepee Lake,nan,nan,nan,nan,1608.0,nan,MI,9.2,SE,Trout Creek
1443,-87.989,46.526,Van Riper State Park,SP,mid apr-late oct,nan,145,1581.0,E DP DW SH RS,MI,1.5,NW,Champion
1473,-95.94,43.64,Adrian City Park,CP,mid may-mid oct,nan,100,1516.0,E DP 40ft SH,MN,0.5,NW,Adrian
1491,-90.818,47.845,Baker Lake,NF,nan,nan,5,1751.0,NH ND VT NW NS NR N$,MN,18.7,N,Tofte
1498,-92.085,47.792,Bear Head Lake State Park,SP,all year,nan,75,1522.0,E DP DW SH RS,MN,12.7,SW,Ely
1513,-96.192,43.717,Blue Mounds State Park,SP,all year,nan,75,1557.0,E DP 40ft DW SH RS,MN,4.3,N,Luverne
1519,-92.781,47.489,Buhl RV Park,CP,nan,tight narrow road,10,1521.0,NH,MN,0.3,SW,Buhl
1524,-91.917,47.379,Cadotte Lake,NF,early may-mid nov,nan,27,1631.0,NH ND NS RS,MN,14.2,SE,Hoyt Lakes
1525,-95.918,44.354,Camden State Park,SP,all year,nan,80,1512.0,E DP DW SH RS,MN,2.6,SW,Lynd
1531,-90.531,47.833,Cascade River State Park,SP,all year,nan,4,1634.0,E DP VT NW SH RS N$,MN,14.5,NE,Lutsen
1549,-90.772,47.825,Crescent Lake,NF,early may-late oct,nan,34,1781.0,NH ND NS RS PA,MN,17.6,N,Tofte
1556,-96.394,43.849,DeBates Memorial Park,CP,nan,nan,5,1598.0,E L$,MN,0.2,E,Jasper
1560,-90.463,47.829,Devil Track Lake,NF,nan,nan,16,1640.0,NH ND NS NR,MN,8.1,NW,Grand Marais
1561,-90.091,48.003,Devilfish Lake - Grand Portage State Forest,SF,nan,primitive - open all year but snow may block,5,1893.0,NH ND VT DW NS NR L$,MN,20.8,NE,Grand Marais
1565,-90.394,48.037,East Bearskin Lake,NF,early may-late oct,nan,33,1739.0,NH ND NS RS PA,MN,20.0,N,Grand Marais
1580,-90.408,48.053,Flour Lake,NF,early may-mid oct,nan,37,1778.0,NH ND NS RS,MN,21.2,N,Grand Marais
1605,-91.125,47.663,Harriet Lake,NF,nan,nan,13,1765.0,NR N$,MN,11.2,E,Isabella
1615,-96.303,44.265,Hole in the Mountain County Park,CP,nan,nan,nan,1792.0,WE DP DW SH,MN,0.9,W,Lake Benton
1619,-96.302,44.263,Horse Hill Co Park,CP,nan,nan,30,1782.0,E DW SH,MN,0.8,W,Lake Benton
1625,-91.847,47.273,Indian Lake - Cloquet Valley State Forest,SF,nan,primitive - open all year but snow may block,26,1507.0,NH ND VT DW NS NR L$,MN,19.2,NW,Two Harbors
1628,-90.615,48.068,Iron Lake,NF,early may-mid oct,nan,7,1867.0,NH ND NS RS,MN,25.5,NW,Grand Marais
1645,-91.103,47.839,Kawishiwi Lake,NF,nan,nan,5,1659.0,NH ND NS NR,MN,35.7,E,Ely
1647,-90.226,47.863,Kimball Lake,NF,nan,nan,11,1681.0,NH ND NS NR,MN,9.2,NE,Grand Marais
1660,-96.434,44.505,Lake Hendricks Park,CP,nan,nan,27,1758.0,E DP DW SH L$,MN,0.5,W,Hendricks
1666,-95.69,44.102,Lake Shetek State Park,SP,all year,nan,100,1502.0,E DP DW SH RS,MN,2.4,NW,Currie
1674,-95.663,43.945,Lime Lake Co Park,CP,nan,nan,3,1520.0,E ND DW NS PA L$,MN,0.9,W,Avoca
1678,-91.423,47.647,Little Isabella River,NF,mid may-mid sep,nan,11,1831.0,NH ND NS RS,MN,3.8,NW,Isabella
1680,-95.312,47.283,Long Lake County Campground,CP,nan,nan,91,1562.0,E DP DW SH,MN,17.3,S,Shevlin
1685,-96.082,43.646,Magnolia City,CP,early apr-late sep,nan,10,1522.0,WES DP L$,MN,0.1,W,Magnolia
1687,-94.937,47.066,Mantrap - Paul Bunyan State Forest,SF,nan,primitive - open all year but snow may block,40,1527.0,NH NS NR,MN,11.5,NE,Park Rapids
1688,-94.937,47.066,Mantrap Lake - Paul Bunyan State Forest,SF,nan,primitive - open all year but snow may block,38,1528.0,NH ND VT DW NS NR L$,MN,11.5,NE,Park Rapids
1694,-91.535,47.639,Mcdougal Lake,NF,mid may-mid sep,nan,21,1760.0,NH ND NS RS,MN,8.5,W,Isabella
1695,-90.059,48.054,McFarland Lake - Grand Portage State Forest,SF,nan,primitive - open all year but snow may block,5,1506.0,NH VT DW NR,MN,24.6,NE,Grand Marais
1716,-91.073,47.58,Ninemile Lake,NF,nan,nan,24,1616.0,NH ND NS NR,MN,8.8,W,Schroeder
1724,-96.261,44.288,Norwegian Creek Co Park,CP,nan,nan,92,1753.0,WES DP FT DW SH,MN,2.1,NE,Lake Benton
1730,-95.635,43.608,Olson City Park,CP,mid apr-mid oct,nan,68,1581.0,E DP DW SH,MN,2.2,SW,Worthington
1741,-96.349,44.405,Picnic Point Park,CP,nan,nan,30,1777.0,WE DP NS,MN,10.3,N,Lake Benton
1764,-96.14,43.871,Rock River City Park,CP,nan,nan,16,1552.0,WE DP FT DW SH,MN,0.6,W,Edgerton
1775,-90.887,47.866,Sawbill Lake,NF,early may-late oct,nan,50,1818.0,NH DP NS RS PA,MN,20.3,N,Tofte
1779,-95.601,43.86,Seven Mile Lake Co Park,CP,nan,nan,13,1502.0,E ND FT DW SH NR,MN,0.7,S,Fulda
1782,-92.464,47.484,Sherwood Forest City Campground,CP,mid may-mid oct,nan,57,1503.0,WES DP DW SH,MN,0.3,S,Gilbert
1794,-96.364,43.898,Split Rock Creek State Park,SP,mid may-mid sep,nan,30,1621.0,E DP DW SH RS,MN,3.7,NE,Jasper
1807,-91.669,47.382,Sullivan Lake ? Finland State Forest,SF,nan,primitive - open all year but snow may block,12,1700.0,NH ND VT DW NS NR L$,MN,24.8,N,Two Harbors
1809,-95.94,44.167,Swensons Park,CP,mid apr-mid oct,nan,10,1670.0,E DP VT NS PA,MN,5.9,SW,Balaton
1815,-90.88,47.719,Temperance River,NF,nan,nan,11,1520.0,E ND SH NR,MN,34.2,NE,Silver Bay
1824,-90.954,47.713,Toohey Lake,NF,nan,nan,10,1677.0,NH ND NS NR,MN,12.0,N,Schroeder
1828,-90.446,47.879,Two Island Lake,NF,nan,nan,38,1773.0,NH ND NS NR,MN,10.3,NW,Grand Marais
1847,-95.78,44.153,West Lake Sarah County Park,CP,all year,nan,8,1529.0,E DP VT DW NS PA,MN,4.4,S,Garvin
1860,-95.363,46.813,Wolf Lake City Campground,CP,early may-mid oct,nan,14,1538.0,E DW SH L$,MN,0.8,NW,Wolf Lake
2055,-103.588,48.057,American Legion Park - Williston,CP,nan,unknown facilities,15,1860.0,E ND NS,ND,6.4,S,Williston
2056,-101.278,48.992,Antler Memorial Park,CP,nan,outdoor toilets,nan,1522.0,E DP N$,ND,1.5,N,Antler
2058,-99.378,46.033,Ashley RV Park,CP,nan,nan,9,2010.0,WES,ND,0.3,W,Ashley
2059,-100.556,46.503,Badger Bay,COE,nan,nan,6,1614.0,NH ND NS NR,ND,22.4,NW,Linton
2061,-101.29,47.11,Ball Park RV Park,CP,nan,nan,10,1962.0,E ND NS RS L$,ND,0.6,SE,Center
2062,-102.95,48.872,Baukol - Noonan Trout Pond,CP,nan,nan,nan,1988.0,E VT,ND,2.9,SE,Noonan
2063,-101.915,47.459,Beaver Bay Rec Area - Zap,CP,nan,primitive = unknown facilities,nan,1867.0,NH ND NS,ND,11.9,N,Zap
2064,-100.533,46.25,Beaver Creek - Lake Oahe,COE,mid may-mid sep,nan,40,1652.0,WES DP DW SH RS PA N$,ND,14.4,W,Linton
2065,-99.618,46.404,Beaver Lake State Park,SP,mid may-late aug,nan,nan,2037.0,E DP DW SH RS,ND,10.2,SE,Napoleon
2067,-103.348,47.491,Bennett,NF,nan,nan,15,2237.0,NH NS NR,ND,21.7,S,Watford City
2068,-101.729,48.317,Berthold Cenex RV Park,CP,early may-late oct,nan,10,2070.0,WE DP N$,ND,0.5,NE,Berthold
2069,-101.773,47.506,Beulah Bay Rec Area,CP,nan,nan,nan,1900.0,WE DP DW SH L$,ND,16.7,N,Beulah
2070,-101.784,47.254,Beulah Park District Eagles RV Park,CP,nan,nan,nan,1775.0,WE DW SH,ND,0.7,SW,Beulah
2071,-98.35,47.563,Binford Park Campground,CP,nan,nan,6,1522.0,WES DP FT DW SH,ND,0.2,NW,Binford
2072,-99.36,48.639,Bisbee (Big Coulee) Dam,CP,nan,unknown facilities,nan,1589.0,NH ND NS,ND,1.2,NE,Bisbee
2073,-103.734,48.429,Blacktail Dam,CP,nan,nan,32,2086.0,E DP FT DW SH,ND,20.2,N,Williston
2074,-100.432,48.823,Bottineau City Park,CP,nan,well maintained,16,1634.0,WES FT DW,ND,0.7,SE,Bottineau
2075,-102.25,48.804,Bowbells RV Park,CP,nan,nan,nan,1959.0,WES DP,ND,0.2,W,Bowbells
2076,-99.705,47.473,Bowdon RV Park,CP,nan,quiet,6,1805.0,WES DP FT DW SH,ND,0.2,NE,Bowdon
2077,-103.39,46.177,Bowman Lions Park,CP,nan,nan,nan,2950.0,NH DP NS,ND,0.5,SE,Bowman
2078,-103.246,45.99,Bowman-Haley Lake,COE,nan,nan,nan,2797.0,E DP FT DW SH NR,ND,15.1,SE,Bowman
2079,-100.091,46.564,Braddock City Park,CP,nan,primitive - unknown facilites - no trees,nan,1859.0,E DP DW,ND,0.0,SW,Braddock
2080,-100.885,47.547,Brekken - Holmes Rec Area,CP,nan,nan,18,1848.0,NH DW NS,ND,13.3,NE,Underwood
2082,-103.675,46.954,Buffalo Gap,NF,early jun-late aug,nan,48,2576.0,NH ND SH NR L$,ND,7.6,W,Medora
2083,-100.767,48.327,Buffalo Lake County Park,CP,nan,nan,nan,1551.0,NH N$,ND,5.4,NE,Granville
2086,-103.444,46.597,Burning Coal Vein,NF,nan,nan,10,2536.0,NH ND NS NR N$,ND,23.0,SW,Belfield
2087,-100.666,47.838,Butte City Park,CP,nan,nan,nan,1736.0,E DP,ND,0.0,SW,Butte
2088,-103.373,46.179,Butte View Park,CP,nan,nan,50,2966.0,E DP DW SH,ND,1.1,E,Bowman
2090,-100.552,48.877,Carbury Rec Area,CP,nan,nan,10,1630.0,E,ND,5.9,NW,Bottineau
2091,-101.713,48.444,Carpio City Park,CP,nan,nan,nan,1690.0,nan,ND,0.1,NE,Carpio
2092,-101.713,48.444,Carpio City Park,CP,nan,nan,10,1690.0,E,ND,0.1,NE,Carpio
2093,-100.592,46.095,Cattail Bay,COE,nan,unknown facilities,6,1609.0,NH ND NS NR,ND,20.8,W,Strasburg
2094,-103.276,47.586,CCC,NF,nan,nan,38,1983.0,NH ND NS NR,ND,14.9,S,Watford City
2096,-101.295,47.114,Center RV Park,CP,nan,nan,20,1972.0,WES DP RS,ND,0.3,SE,Center
2098,-100.719,47.358,Chain of Lakes Rec Area,BOR,nan,nan,55,1845.0,NH DP VT NR,ND,14.1,N,Wilton
2099,-103.266,47.8,Cherry Creek Campground,CP,nan,nan,nan,2054.0,WES DP DW SH,ND,0.8,E,Watford City
2102,-99.067,46.012,Cold Water Park,CP,nan,nan,nan,1960.0,E L$,ND,14.7,E,Ashley
2103,-102.776,48.905,Columbus City Park,CP,nan,small,nan,1923.0,E ND L$,ND,0.2,E,Columbus
2104,-103.982,47.986,Confluence Access,CP,nan,unknown facilities,nan,1879.0,NH ND NS,ND,1.0,SE,Buford
2107,-101.005,47.212,Cross Ranch State Park,SP,all year,nan,nan,1752.0,E DP SH RS,ND,5.0,SE,Hensler
2109,-101.603,46.895,Danzig Dam,CP,nan,primitive - unknown facilities,nan,2118.0,NH VT,ND,12.6,N,Almont
2112,-101.598,47.578,Douglas Creek Bay - Lake Sakakawea,COE,nan,nan,17,1868.0,NH ND NS NR,ND,9.9,SW,Garrison
2113,-101.427,47.481,Downstream - Lake Sakakawea,COE,early may-late sep,nan,117,1696.0,E DP DW SH RS PA L$,ND,2.4,SE,Pick City
2114,-99.48,46.206,Doyle Memorial State Park,SP,all year,nan,12,2015.0,E DW SH NR,ND,5.1,SE,Wishek
2117,-101.262,47.618,East Totten - Lake Sakakawea,COE,nan,unknown facilities,30,1854.0,E DP NS NR,ND,5.4,N,Coleharbor
2119,-103.363,48.279,Epping RV Park,CP,early may-mid oct,may be full - check,12,2203.0,WES DP,ND,0.3,W,Epping
2120,-99.626,47.645,Fessenden City Park,CP,nan,nan,8,1611.0,E DW SH L$,ND,0.3,SE,Fessenden
2122,-99.441,48.295,Firemans Memorial Park - Leeds,CP,nan,basic RV parking area,nan,1509.0,NH ND FT DW NS N$,ND,0.4,NW,Leeds
2123,-103.642,47.843,First Responders Park - Alexander,CP,nan,shaded,6,2181.0,WE DP N$,ND,0.1,E,Alexander
2124,-102.393,48.899,Flaxton Water Tower Park,CP,nan,small,nan,1936.0,E ND NS N$,ND,0.1,N,Flaxton
2126,-100.839,46.748,Fort Abraham Lincoln State Park,SP,all year,nan,nan,1640.0,E DP 45ft DW SH RS,ND,5.9,SE,Mandan
2127,-104.001,47.986,Fort Buford State Historic Site,CP,nan,unknown facilities - no shade,nan,1900.0,NH,ND,1.0,SW,Buford
2130,-100.584,46.505,Fort Rice Rec Area,CP,nan,nan,10,1640.0,E,ND,26.6,SE,Mandan
2131,-101.42,47.591,Fort Stevenson State Park,SP,all year,nan,150,1881.0,E DP DW SH RS,ND,4.2,S,Garrison
2133,-99.147,46.626,Gackle RV Park,CP,nan,nan,6,1913.0,WES DP FT DW SH,ND,0.2,W,Gackle
2135,-103.091,46.127,Gascoyne Lake City,CP,nan,unknown facilities,nan,2749.0,NH,ND,0.8,NW,Gascoyne
2136,-100.795,46.746,General Sibley Park,CP,nan,nan,nan,1631.0,E DP DW SH,ND,4.3,S,Bismarck
2137,-101.85,46.814,Glen Ullin Memorial Park,CP,nan,nan,nan,2080.0,E DP NS,ND,1.0,W,Glen Ullin
2138,-98.628,47.457,Glenfield City Park,CP,nan,nan,5,1506.0,WE FT DW,ND,2.8,W,Glenfield
2139,-103.984,46.732,Golva City Park,CP,nan,nan,5,2818.0,E,ND,0.1,SE,Golva
2140,-100.122,47.474,Goodrich City Park,CP,nan,nan,3,1958.0,ES DP SH,ND,0.2,E,Goodrich
2144,-100.715,46.654,Graner Park - Sugarloaf Rec Area,CP,nan,nan,27,1618.0,E DP PA,ND,3.6,NW,Huff
2145,-100.848,48.263,Granville City Park,CP,nan,nan,10,1518.0,E,ND,0.4,SW,Granville
2146,-103.247,47.394,Grassy Butte Community Park,CP,nan,nan,25,2680.0,E VT,ND,0.1,N,Grassy Butte
2148,-99.999,46.029,Hague City Park,CP,nan,nan,4,1896.0,E DP DW SH,ND,0.2,W,Hague
2151,-100.966,46.944,Harmon Lake Rec Area,CP,nan,primitive in 2012 - being developed to WES,nan,1759.0,NH ND NS,ND,8.9,NW,Mandan
2153,-102.471,45.974,Haynes City Park,CP,nan,primitive - unknown facilities,nan,2546.0,NH,ND,0.0,W,Haynes
2154,-100.543,46.525,Hazelton Area - Lake Oahe,COE,mid may-mid sep,nan,nan,1641.0,E ND NS RS PA,ND,12.9,W,Hazelton
2155,-100.284,46.484,Hazelton City Park,CP,nan,nan,10,1965.0,WES DP FT DW SH,ND,0.2,W,Hazelton
2156,-101.626,47.502,Hazen Bay Rec Area,nan,nan,nan,70,1937.0,E DP DW SH,ND,14.3,N,Hazen
2157,-101.833,46.593,Heart Butte Reservoir (Lake Tschida),CP,nan,2 campgrounds,nan,2111.0,NH ND VT NW NS N$,ND,13.1,N,Elgin
2159,-100.454,47.516,Hoffer Lake Rec Area,CP,nan,nan,16,1850.0,WE DW,ND,2.2,N,McClusky
2162,-99.442,46.048,Hoskins Lake Rec Park,CP,nan,nan,nan,1991.0,E DP FT DW,ND,3.5,W,Ashley
2164,-102.095,47.61,Indian Hills State Rec Area and Resort,SRA,nan,nan,nan,1901.0,WE DP DW SH RS,ND,12.1,W,White Shield
2165,-100.066,48.988,International Peace Garden,nan,nan,nan,nan,2289.0,E DP DW SH,ND,12.1,N,Dunseith
2166,-101.619,47.299,John Moses Memorial Park,CP,nan,small - unkonown facilities,nan,1739.0,E L$,ND,0.3,NE,Hazen
2167,-103.337,47.594,Juniper - Theodore Roosevelt National Park,NP,nan,nan,50,1955.0,NH DP FT DW NR,ND,14.6,S,Watford City
2169,-102.755,47.366,Killdeer City Park,CP,nan,nan,12,2251.0,E DP FT DW SH N$,ND,0.4,S,Killdeer
2170,-100.733,46.679,Kimball Bottom,CP,nan,primitive - unknown facilities,nan,1621.0,NH ND VT NS,ND,9.2,S,Bismarck
2172,-103.144,48.238,Kota Ray County Park,CP,nan,nan,nan,2117.0,E,ND,7.4,S,Ray
2173,-98.943,46.301,Kulm City,CP,nan,call first,8,1969.0,WES DW,ND,0.2,E,Kulm
2174,-100.869,47.53,Lake Holmes,CP,nan,unknown facilities,nan,1832.0,nan,ND,1.2,NE,Turtle Lake
2175,-99.441,46.048,Lake Hoskins Park,CP,nan,dispersed,nan,1994.0,E DP VT NW SH L$,ND,3.5,W,Ashley
2176,-100.337,48.979,Lake Metigoshe State Park,SP,all year,nan,nan,2150.0,E DP DW SH RS,ND,11.6,NE,Bottineau
2177,-102.646,48.559,Lake Park - Powers Lake,CP,nan,nan,12,2203.0,E SH,ND,0.3,S,Powers Lake
2178,-101.452,47.524,Lake Sakakawea State Park,SP,all year,nan,nan,1884.0,E DP DW SH RS,ND,0.9,N,Pick City
2181,-98.373,48.765,Langdon City Park,CP,nan,dispersed,12,1608.0,WES DP NW SH,ND,0.4,NW,Langdon
2182,-100.499,45.978,Langeliers Bay,CP,nan,primitive - unknown facilities,nan,1622.0,NH ND NS,ND,19.4,SW,Strasburg
2186,-101.643,47.294,Lewis and Clark City RV Park,CP,nan,nan,nan,1749.0,WES DP DW SH,ND,1.0,W,Hazen
2187,-103.231,48.13,Lewis and Clark State Park,SP,all year,nan,nan,1894.0,E DP DW SH RS,ND,17.9,E,Williston
2190,-99.831,48.969,Lion Park at Lake Upsilon,CP,nan,nan,nan,2115.0,NH,ND,5.7,W,St. John
2191,-101.837,46.403,Lions and Elgin Parkboard,CP,nan,nan,14,2339.0,E,ND,0.4,E,Elgin
2192,-102.859,48.153,Little Beaver Bay,CP,nan,unknown facilities,76,1861.0,E DP,ND,20.8,NW,New Town
2193,-100.763,46.688,Little Heart Schmidt Bottoms,CP,nan,may be no camping - unknown facilities,15,1621.0,nan,ND,8.4,S,Bismarck
2194,-102.758,47.558,Little Missouri State Park,SP,mid may-mid sep,for reservations call park directly,nan,2442.0,E DP NS RS,ND,12.9,N,Killdeer
2197,-103.473,47.308,Magpie,NF,nan,nan,11,2230.0,NH ND NS NR,ND,35.3,S,Watford City
2198,-100.115,47.825,Martin City Park,CP,nan,Check in at Someplace Else bar,nan,1629.0,WES DP,ND,0.1,S,Martin
2201,-101.141,48.722,Maxbass City Park,CP,nan,nan,nan,1503.0,E DW,ND,0.0,N,Maxbass
2202,-100.446,47.481,McClusky City Park,CP,nan,nan,nan,1913.0,WE DP DW,ND,0.4,S,McClusky
2203,-102.931,48.585,Mcgregor Dam,CP,nan,nan,nan,2268.0,E,ND,12.9,N,Tioga
2204,-98.592,47.576,McHenry City Park,CP,nan,unknown facilities,nan,1506.0,NH,ND,0.0,NW,McHenry
2205,-102.365,47.598,McKenzie Bay Rec Area,CP,nan,unknown facilities,nan,1869.0,DP DW SH,ND,17.1,SE,Mandaree
2207,-99.3,46.891,Medina City Park,CP,nan,nan,16,1811.0,WES DP DW SH,ND,0.2,S,Medina
2208,-103.534,46.923,Medora City RV Campground,CP,nan,nan,nan,2264.0,E DP DW SH,ND,0.8,NW,Medora
2210,-98.118,48.026,Michigan City Parks,CP,nan,primitive,4,1516.0,E ND DW NS,ND,0.2,NE,Michigan
2212,-101.342,48.425,Minot AFB Military,MIL,nan,military only - do not use our lat/lon - contact them for directions and info,nan,1626.0,RS,ND,13.5,N,Minot
2214,-102.638,45.997,Mirror Lake City Park,CP,nan,nan,26,2667.0,FT DW SH,ND,0.3,S,Hettinger
2215,-101.516,48.762,Mohall City Campground,CP,nan,nan,10,1640.0,E DP DW SH L$,ND,0.1,SW,Mohall
2216,-98.59,46.172,Monango City Park,CP,nan,nan,4,1503.0,E,ND,0.2,E,Monango
2218,-101.367,47.506,Morningstar Park,CP,nan,nan,29,1960.0,E PT,ND,0.6,N,Riverdale
2219,-102.322,46.371,Mott American Legion Park,CP,nan,nan,nan,2369.0,E DP,ND,0.3,SE,Mott
2220,-98.309,48.917,Mount Carmel Rec Area,CP,nan,nan,200,1568.0,WES DP DW SH,ND,11.2,N,Langdon
2221,-101.787,48.795,Mouse River Park,CP,nan,nan,nan,1680.0,E DP DW SH,ND,12.6,W,Mohall
2222,-98.837,48.669,Munich Park,CP,nan,nan,5,1595.0,E DW SH,ND,0.2,W,Munich
2223,-99.767,46.501,Napoleon City Park and Campground,CP,nan,nan,12,1959.0,ES DP,ND,0.5,S,Napoleon
2224,-99.613,48.856,Neameyer Field Campground,CP,nan,nan,12,1801.0,ES DP DW SH,ND,0.3,SE,Rolla
2225,-102.868,46.531,New England South Park,CP,nan,nan,nan,2557.0,NH,ND,0.6,S,New England
2226,-101.948,46.372,New Leipzig City Park,CP,nan,nan,14,2324.0,E DP,ND,0.5,SW,New Leipzig
2227,-102.531,47.985,New Town Marina,CP,nan,nan,55,1838.0,E DP DW SH,ND,1.9,W,New Town
2229,-103.008,48.886,Noonan Lions,CP,nan,nan,7,1993.0,WES DP,ND,0.2,S,Noonan
2230,-101.421,46.854,North City Park - New Salem,CP,nan,nan,6,2142.0,E,ND,0.8,NW,New Salem
2231,-99.127,47.687,North Riverside Park - New Rockford,CP,nan,nan,13,1516.0,E DW SH,ND,0.7,NE,New Rockford
2232,-102.268,48.923,Northgate Dam Rec Center,CP,nan,unknown facilities,nan,1905.0,E,ND,8.4,N,Bowbells
2234,-101.431,48.283,Old Settlers Park,CP,nan,nan,nan,1580.0,E L$,ND,0.5,N,Burlington
2235,-98.771,46.971,Parkhurst  - Pipestem Lake,CP,nan,nan,nan,1501.0,NH DP N$,ND,5.1,NW,Jamestown
2236,-102.293,47.922,Parshall Bay Rec Area,CP,nan,nan,43,1859.0,E DP DW SH,ND,7.6,W,Parshall
2237,-102.843,46.868,Patterson Lake Rec Area,CP,nan,nan,nan,2441.0,E DP DW SH L$,ND,2.7,W,Dickinson
2239,-99.519,47.12,Pettibone City Park,CP,all year,nan,nan,1850.0,WE DW SH,ND,0.1,NE,Pettibone
2241,-103.301,48.909,Pioneer Village - Crosby,CP,nan,call on arrival - no camping after mid july,nan,1962.0,WE DP NS L$,ND,0.5,SW,Crosby
2242,-102.646,48.559,Powers Lake City Park,CP,nan,excellent park - by lake,nan,2202.0,E DP FT DW SH L$,ND,0.3,S,Powers Lake
2243,-101.526,48.015,Rice Lake County Park,CP,nan,unknown facilities,nan,2071.0,NH VT,ND,18.4,SW,Minot
2244,-101.784,47.254,Riverside Park - Beulah,CP,nan,nan,8,1775.0,E FT DW SH,ND,0.7,SW,Beulah
2245,-99.248,48.794,Rock Lake City Park,CP,nan,outdoor toilets,nan,1539.0,E,ND,0.2,N,Rock Lake
2246,-99.849,48.664,Rolette RV Park,CP,nan,swim,8,1621.0,WES FT DW RS PA L$,ND,0.4,NW,Rolette
2247,-101.378,47.321,Sakakawea Park,CP,nan,nan,nan,1680.0,E DP,ND,0.2,E,Stanton
2249,-99.0,48.945,Sarles City Park,CP,nan,nan,nan,1591.0,NH,ND,0.2,W,Sarles
2250,-103.811,47.673,Sather Lake,NF,nan,4 campgrounds,60,2267.0,NR,ND,14.1,SW,Alexander
2252,-100.213,46.249,Seeman Park,CP,nan,nan,10,1729.0,E DW SH L$,ND,1.5,SE,Linton
2253,-98.58,47.068,Shady Cove Co Park,CP,nan,nan,nan,1505.0,WES DP FT DW SH,ND,12.5,NE,Jamestown
2254,-101.849,46.338,Sheep Creek Dam,SRA,nan,nan,nan,2248.0,NH ND NS NR,ND,4.6,S,Elgin
2256,-102.786,48.992,ShortCreek Dam,CP,nan,nan,40,1887.0,E,ND,6.1,N,Columbus
2258,-102.666,48.613,Smishek Lake City Park,CP,nan,swim,30,2243.0,E DW SH,ND,3.5,N,Powers Lake
2259,-98.746,47.01,Smokeys Campsite and Landing,CP,nan,nan,nan,1503.0,E DP,ND,7.1,N,Jamestown
2261,-101.327,47.615,Sportsmens Centennial Park,CP,early may-late sep,swim,121,1869.0,E FT DW SH,ND,4.8,SE,Garrison
2262,-102.39,48.321,Stanley City Park,CP,nan,get whirl-a-whip at Dakota Drug,10,2251.0,E DP NS N$,ND,0.3,N,Stanley
2263,-101.355,47.621,Steinke Bay,CP,nan,primitive - unknown facilities,nan,1866.0,NH ND NS,ND,3.6,SE,Garrison
2264,-100.509,48.946,Strawberry Lake - Turtle Mtn State Forest,SF,nan,nan,nan,2180.0,NH ND VT NS L$,ND,8.7,N,Bottineau
2265,-99.363,46.659,Streeter City Park,CP,nan,nan,nan,1939.0,NH FT DW,ND,0.3,W,Streeter
2267,-103.528,46.889,Sully Creek State Rec Area,SP,early apr-late nov,nan,nan,2322.0,NH ND NS NR,ND,1.7,S,Medora
2268,-103.242,47.54,Summit,NF,nan,nan,7,2504.0,NH NR,ND,18.2,S,Watford City
2269,-101.773,47.267,Sun Valley Park,CP,early may-late oct,nan,30,1798.0,WES DP FT DW PA,ND,0.3,NE,Beulah
2270,-103.969,47.861,Sundheim Park,CP,nan,primitive - unknown facilities,nan,1883.0,NH ND NS,ND,2.0,W,Cartwright
2271,-101.124,48.242,Surrey RV Park,CP,nan,nan,10,1613.0,E FT DW SH,ND,0.6,NE,Surrey
2272,-101.274,46.873,Sweet Briar Lake,CP,nan,primitive - dispersed,nan,1942.0,NH ND VT NS,ND,6.8,E,New Salem
2273,-102.931,48.399,Tioga City Park,CP,nan,nan,12,2241.0,E DP DW SH,ND,0.3,NE,Tioga
2274,-103.104,48.11,Tobacco Garden Rec Area,nan,nan,nan,nan,1864.0,E DP DW SH,ND,22.8,N,Watford City
2279,-102.369,47.948,Traynor Park  - Van Hook,CP,nan,nan,110,1870.0,WES DP FT DW SH,ND,6.0,E,New Town
2280,-103.826,48.065,Trenton Lake Rec Area,CP,nan,nan,nan,1860.0,NH,ND,11.1,SW,Williston
2281,-100.883,47.519,Turtle Lake City Park,CP,nan,nan,nan,1882.0,WE DP,ND,0.3,E,Turtle Lake
2283,-99.994,47.145,Tuttle City Park,CP,nan,nan,nan,1859.0,NH,ND,0.1,N,Tuttle
2284,-100.939,48.06,Velva City Park,CP,nan,nan,nan,1506.0,WE DP FT DW SH,ND,0.5,NW,Velva
2285,-104.01,46.928,Visitors Center - Beach,CP,nan,unknown facilities,nan,2822.0,NH N$,ND,0.7,N,Beach
2287,-103.588,47.053,Wannagan,NF,nan,nan,10,2380.0,NH ND NS NR,ND,21.7,NE,Beach
2289,-101.037,47.289,Washburn City Park,CP,nan,nan,nan,1688.0,NH,ND,0.4,W,Washburn
2290,-103.272,47.805,Watford City Tourist Park,CP,nan,nan,8,2071.0,WE DP DW SH L$,ND,0.5,E,Watford City
2291,-98.712,46.362,Weaver Park,CP,nan,unknown facilities,nan,1552.0,E DP DW SH,ND,0.3,NE,Edgeley
2294,-99.943,47.774,West Side City Park - Harvey,CP,nan,nan,nan,1603.0,E DP DW SH L$,ND,0.4,NW,Harvey
2295,-102.726,48.125,White Earth Bay Rec Area,CP,nan,no shade,nan,1851.0,E DP FT DW,ND,14.8,NW,New Town
2296,-103.186,48.631,Wildrose City Park,CP,nan,unknown facilities,nan,2251.0,NH,ND,0.1,W,Wildrose
2298,-100.786,47.155,Wilton City Park,CP,nan,nan,8,2172.0,WE,ND,0.3,SW,Wilton
2299,-101.299,47.547,Wolf Creek Rec Area - Lake Sakakawea,COE,nan,nan,nan,1841.0,NH DP NS NR L$,ND,4.8,NE,Riverdale
2301,-99.573,48.313,York City Park,CP,nan,nan,nan,1611.0,NH,ND,0.0,N,York
2302,-99.829,45.968,Zeeland City Park,CP,nan,nan,nan,2014.0,NH,ND,0.2,SE,Zeeland
2303,-99.845,42.548,Ainsworth East City Park,CP,early may-late oct,nan,30,2518.0,WE DP FT DW SH L$,NE,0.8,E,Ainsworth
2304,-98.009,41.682,Albion Campground,CP,nan,register at city hall,28,1811.0,WES DP FT DW SH NR L$,NE,0.8,SW,Albion
2306,-100.197,41.413,Arnold Lake  State Rec Area,SRA,all year,nan,120,2694.0,E DP PT NS NR,NE,0.7,S,Arnold
2307,-101.712,41.251,Arthur Bay - Lake McConaughy,SRA,all year,nan,nan,3281.0,DP RS,NE,8.5,N,Ogallala
2308,-101.691,41.571,Arthur Park,CP,nan,nan,10,3655.0,E DP FT DW,NE,0.1,S,Arthur
2309,-98.998,42.537,Atkinson Lake  State Rec Area,SRA,nan,nan,28,2095.0,E ND VT DW NS NR,NE,1.1,W,Atkinson
2311,-98.148,40.989,Bader Memorial Park,CP,nan,nan,31,1768.0,E DP DW SH,NE,2.5,S,Chapman
2312,-100.551,42.599,Ballards Marsh State Wildlife Area,SFW,nan,dispersed,nan,2881.0,NH ND NW NS NR,NE,18.9,S,Valentine
2314,-99.541,42.578,Bassett Municipal Park,CP,nan,nan,10,2326.0,WE DP DW SH,NE,0.6,S,Bassett
2315,-98.952,40.684,Bassway Strip State Wildlife Area,SFW,nan,nan,nan,2090.0,NR,NE,6.9,E,Kearney
2316,-97.6,41.993,Battle Creek Municipal Park,CP,nan,nan,nan,1595.0,E DP,NE,0.5,S,Battle Creek
2317,-103.327,41.756,Bayard City Park,CP,nan,nan,5,3757.0,E DW N$,NE,0.2,NW,Bayard
2321,-100.3,41.902,Bessey Rec Area,NF,all year,nan,50,2701.0,E DP DW SH RS L$,NE,1.6,W,Halsey
2322,-100.607,42.638,Big Alkali Lake State Wildlife Area,SFW,nan,nan,30,2885.0,NH NS NR,NE,16.4,S,Valentine
2324,-97.648,42.594,Bloomfield City Park,CP,all year,nan,6,1691.0,WES DP DW N$,NE,0.4,S,Bloomfield
2328,-98.991,41.276,Bowman Lake  State Rec Area,SRA,nan,nan,12,2060.0,NH ND VT DW NS NR L$,NE,1.3,W,Loup City
2329,-103.088,42.467,Box Butte  State Rec Area,SRA,nan,nan,54,4014.0,E ND VT DW NS NR,NE,10.0,N,Hemingford
2331,-103.111,41.679,Bridgeport  State Rec Area,SRA,nan,nan,130,3668.0,NH DP NS NR,NE,1.1,NW,Bridgeport
2333,-97.912,42.463,Bruce City Park,CP,early apr-late oct,nan,7,1636.0,WES DP FT DW SH L$,NE,0.4,SW,Creighton
2334,-97.51,40.352,Bruning Dam,CP,nan,nan,nan,1532.0,NH ND PT NS,NE,3.2,E,Bruning
2335,-97.599,41.107,Buckley City Park,CP,all year,nan,12,1624.0,E DP DW SH N$,NE,0.7,SW,Stromsburg
2337,-100.794,41.161,Buffalo Bill Ranch State Rec Area,SRA,nan,no shade,29,2812.0,E ND DW NS NR L$,NE,2.3,NW,North Platte
2340,-98.938,41.606,Bussell City Park,CP,nan,nan,8,2044.0,WES DP FT DW SH L$,NE,0.5,W,Ord
2342,-100.16,40.283,Cambridge City RV Park,CP,nan,nan,nan,2251.0,E DP DW SH N$,NE,0.3,E,Cambridge
2343,-98.646,42.451,Carney Park,CP,nan,nan,21,1969.0,WE DP DW SH L$,NE,0.5,S,O'Neill
2344,-101.668,41.204,Cedar Vue - Lake McConaughy State Rec Area,SRA,all year,nan,115,3268.0,WES DP SH RS,NE,5.9,NE,Ogallala
2345,-103.007,42.708,Chadron State Park,SP,all year,nan,90,3824.0,E DP DW SH RS PA L$,NE,8.4,S,Chadron
2346,-101.75,40.472,Champion Lake State Rec Area,SRA,nan,nan,8,3251.0,NH ND VT DW NS NR L$,NE,0.2,N,Champion
2349,-98.588,40.765,Cheyenne  State Rec Area,SRA,nan,nan,8,1959.0,NH ND DW NS NR L$,NE,17.0,SW,Grand Island
2350,-97.791,42.352,Chilvers Park,CP,all year,nan,4,1680.0,E FT DW,NE,0.1,NE,Plainview
2352,-97.721,40.136,City RV Park - Deshler,CP,nan,nan,10,1529.0,WES DP SH,NE,0.3,S,Deshler
2354,-101.245,42.935,Cody City Park - Cody,CP,nan,nan,nan,3100.0,E DP DW small L$,NE,0.0,S,Cody
2355,-100.759,41.15,Cody City Park - North Platte,CP,nan,nan,40,2799.0,DP,NE,0.7,N,North Platte
2359,-101.677,42.916,Cottonwood Lake  State Rec Area,SRA,nan,nan,30,3237.0,NH ND VT DW NS NR L$,NE,1.2,E,Merriman
2360,-98.398,41.397,Cottonwood Park - Wolbach,CP,early apr-late oct,nan,5,1841.0,E DW L$,NE,0.2,W,Wolbach
2361,-97.863,42.365,Country Club - Plainview,CP,nan,campground next to golf course - unknown facilities,nan,1742.0,E ND NS L$,NE,3.8,W,Plainview
2362,-98.703,41.464,County Campground - Scotia,CP,all year,nan,10,1923.0,WE FT DW L$,NE,0.2,S,Scotia
2363,-103.417,42.687,Crawford City Park,CP,nan,nan,4,3661.0,E DP N$,NE,0.7,W,Crawford
2364,-98.44,40.456,Crystal Lake State Rec Area,SRA,nan,nan,70,1801.0,E ND VT DW NS NR,NE,1.2,N,Ayr
2367,-97.123,41.245,David City Park,CP,nan,nan,12,1611.0,WES DP L$,NE,0.6,SE,David City
2369,-97.721,40.136,Deshler City Park,CP,all year,nan,10,1529.0,WES DP FT DW SH N$,NE,0.3,S,Deshler
2371,-98.29,40.582,DLD State Wayside Rec Area,SRA,nan,nan,nan,1896.0,NH ND NS NR,NE,5.3,E,Hastings
2372,-101.952,41.269,Eagle Canyon - Lake McConaughy State Rec Area,SRA,all year,nan,30,3279.0,RS,NE,15.5,NW,Ogallala
2373,-97.97,40.363,Edgar City Camp Facility,CP,nan,nan,4,1719.0,WES DP FT DW NS,NE,0.7,S,Edgar
2374,-98.077,41.987,Elgin City Park,CP,early may-mid oct,swim,8,1926.0,WES DP FT DW SH L$,NE,0.4,NE,Elgin
2375,-101.52,40.431,Enders Reservoir State Rec Area,SRA,nan,nan,232,3149.0,E DP DW SH NR L$,NE,8.8,SE,Imperial
2377,-98.34,42.254,Ewing City Park,CP,nan,nan,6,1850.0,E DP L$,NE,0.4,SE,Ewing
2379,-98.989,40.652,Fort Kearny  State Rec Area,SRA,all year,nan,110,2106.0,E DP 45ft DW SH RS PA,NE,5.8,SE,Kearney
2380,-103.466,42.667,Fort Robinson State Park,SP,all year,nan,125,3806.0,WES DP SH RS PA,NE,3.2,W,Crawford
2381,-98.038,42.125,Fred Penn Park,CP,early apr-late oct,nan,nan,1719.0,NH ND PT DW NS,NE,0.5,SW,Neligh
2383,-99.979,40.736,Gallagher Canyon State Rec Area - Cozad,SRA,nan,nan,25,2674.0,NH ND DW NS NR L$,NE,8.4,S,Cozad
2384,-97.737,41.443,Genoa City Park,CP,all year,nan,4,1572.0,WES DP FT DW L$,NE,0.5,SW,Genoa
2385,-98.369,40.878,George Clayton Hall County Park,CP,nan,nan,nan,1864.0,E DP DW SH L$,NE,3.6,SW,Grand Island
2386,-99.637,40.247,George Mitchell RV Park,CP,all year,nan,10,2057.0,E DP PT DW L$,NE,0.3,S,Oxford
2387,-97.519,42.201,Gilman Park,CP,early mar-late oct,nan,4,1572.0,E FT DW SH L$,NE,0.4,E,Pierce
2388,-97.544,42.502,Gladstone City Park,CP,mid apr-late sep,swim,7,1756.0,E DP FT DW L$,NE,0.2,NW,Wausa
2390,-98.572,42.116,Goose Lake State Wildlife Area,SFW,nan,dispersed,nan,2044.0,NH ND NW NS NR,NE,27.4,W,Antelope
2391,-103.649,41.235,Gotte Park,CP,nan,unknown facilities,nan,4714.0,NH N$,NE,0.7,E,Kimball
2392,-98.538,41.551,Greeley City park,CP,nan,nan,nan,2011.0,NH ND FT DW NS N$,NE,0.4,NW,Greeley Center
2393,-99.215,40.085,Gremlin Cove - Harlan County Lake,COE,nan,nan,100,1978.0,NH ND NS NR,NE,1.0,S,Republican City
2394,-98.116,42.368,Grove Lake State Wildlife Area,SFW,nan,dispersed,nan,1733.0,NH ND VT DW NS NR,NE,2.5,N,Royal
2395,-98.335,40.077,Guide Rock City Park,CP,nan,nan,nan,1677.0,E DP FT DW L$,NE,0.3,NW,Guide Rock
2396,-98.069,40.196,Harbine Park,CP,all year,swim,5,1683.0,WES DP FT DW L$,NE,0.4,S,Nelson
2398,-100.932,40.591,Hayes Center State Wildlife Area,SFW,nan,dispersed,nan,2837.0,NH ND NW NS NR,NE,9.3,NE,Hayes
2399,-97.801,41.409,Headworks Park - LOUP,UTIL,nan,ATV area,nan,1581.0,E DW NR N$,NE,4.6,SW,Genoa
2400,-100.013,40.307,Holbrook City Park,CP,all year,nan,5,2211.0,E VT DW,NE,0.4,N,Holbrook
2401,-99.378,40.436,Holdrege City Park,CP,nan,nan,nan,2315.0,E DP FT DW SH,NE,0.5,SW,Holdrege
2402,-99.216,41.851,Homestead Knolls - Calamus State Rec Area,SRA,nan,some sites reservable,83,2327.0,E DP DW SH RS,NE,6.4,NW,Burwell
2404,-97.956,41.107,Hord Lake  State Rec Area,SRA,nan,dispersed,nan,1683.0,NH ND NW NS NR,NE,2.5,E,Central City
2405,-98.882,42.871,Hull Lake State Wildlife Area,SFW,nan,nan,nan,1825.0,NH ND NS NR,NE,3.3,SW,Butte
2407,-97.488,41.686,Humphrey City Park,CP,early may-late oct,nan,nan,1675.0,WE DW L$,NE,0.5,SW,Humphrey
2408,-99.229,40.083,Hunter Cove - Harlan County Lake,COE,early may-late nov,nan,160,1977.0,E DP DW SH RS PA L$,NE,1.3,S,Republican City
2412,-100.402,40.96,Jeffrey Canyon State Wildlife Area,SFW,nan,dispersed,nan,2749.0,NH ND NW NS NR,NE,4.7,S,Brady
2413,-99.297,41.225,John D. Sims Memorial Park,CP,nan,unknown facilities,nan,2251.0,E,NE,0.2,NE,Mason City
2414,-99.83,40.679,Johnson Lake  State Rec Area,SRA,all year,nan,207,2623.0,E DP 40ft DW SH RS PA,NE,8.4,SW,Lexington
2416,-100.603,40.198,Karrer Park,CP,nan,nan,14,2481.0,E DP DW SH,NE,1.1,E,McCook
2417,-99.766,42.669,Keller Park  State Rec Area,SRA,all year,nan,35,2188.0,E DP VT DW NS NR L$,NE,9.8,NE,Ainsworth
2418,-100.166,40.944,Lafayette Park,CP,nan,nan,30,2608.0,E DP DW SH L$,NE,1.2,N,Gothenburg
2419,-100.765,41.047,Lake Maloney State Rec Area,SRA,all year,nan,256,3018.0,E DP DW SH RS,NE,6.4,S,North Platte
2420,-103.516,41.943,Lake Minatare State Rec Area,SRA,nan,nan,160,4138.0,E DP SH RS PA,NE,9.4,NE,Scottsbluff
2422,-101.671,41.22,Lake Ogallala - Lake McConaughy State Rec Area,SRA,all year,nan,262,3281.0,E ND DW SH RS PA,NE,6.8,N,Ogallala
2423,-101.85,41.238,Lakeview - Lake McConaughy,SRA,all year,nan,nan,3278.0,NH ND NS RS,NE,10.2,NW,Ogallala
2428,-101.816,41.271,Lemoyne - Lake McConaughy,SRA,all year,nan,nan,3288.0,NH ND NS RS,NE,11.1,NW,Ogallala
2430,-99.751,40.786,Lexington City Park,CP,all year,in Plum Creek Park ?,nan,2395.0,E FT DW N$,NE,0.6,NW,Lexington
2431,-98.302,40.265,Liberty Cove Rec Area,CP,nan,unknown facilities,nan,1866.0,E,NE,2.9,SW,Lawrence
2432,-98.083,40.021,Lincoln Park,CP,early feb-mid nov,nan,20,1568.0,E DP FT DW L$,NE,0.9,W,Superior
2435,-101.684,41.247,Little Thunder - Lake McConaughy State Rec Area,SRA,all year,nan,42,3278.0,WES ND DW SH RS,NE,8.4,N,Ogallala
2436,-101.758,41.255,Lone Eagle - Lake McConaughy,SRA,all year,nan,84,3286.0,WES DP DW SH RS,NE,9.0,N,Ogallala
2437,-97.381,40.415,Lone Star Rec Area,CP,nan,nan,14,1552.0,E VT L$,NE,3.8,E,Ohiowa
2438,-100.108,42.292,Long Lake  State Rec Area,SRA,nan,nan,nan,2720.0,NH ND NS NR,NE,19.5,S,Johnstown
2439,-99.716,42.544,Long Pine  State Rec Area,SRA,nan,nan,28,2398.0,NH ND VT DW NS NR L$,NE,1.1,NW,Long Pine
2444,-101.689,41.253,Martin Bay - Lake McConaughy,SRA,all year,nan,nan,3275.0,DP RS,NE,8.8,N,Ogallala
2445,-97.238,41.979,Maskenthine Reservoir - LENRD,UTIL,nan,nan,nan,1556.0,E DP FT DW SH,NE,2.1,N,Stanton
2446,-100.222,40.377,Medicine Creek  State Rec Area,SRA,nan,nan,310,2399.0,E DP SH NR,NE,7.2,NW,Cambridge
2447,-98.147,41.563,Mels Landing City Park,CP,nan,swim,13,1760.0,WE ND PT DW NS,NE,0.2,NW,Cedar Rapids
2448,-97.456,41.835,Memorial City Park - Madison,CP,all year,swim,13,1581.0,WES DP FT DW SH L$,NE,0.5,N,Madison
2450,-100.89,42.596,Merritt Reservoir  State Rec Area,SRA,nan,nan,220,2981.0,E DP SH NR,NE,25.7,SW,Valentine
2451,-99.32,40.086,Methodist Cove - Harlan County Lake,COE,early may-late sep,nan,155,1986.0,WES DP DW SH RS L$,NE,2.3,E,Alma
2452,-100.524,40.626,Mill Park - Curtis,CP,nan,nan,4,2559.0,WE DP FT DW N$,NE,0.5,SW,Curtis
2454,-99.771,41.751,Millburn Dam State Wildlife Area,SFW,nan,nan,nan,2481.0,NR,NE,10.4,NE,Anselmo
2455,-97.391,40.499,Milligan RV Park,CP,early apr-late sep,nan,12,1601.0,WE DP FT DW L$,NE,0.2,SW,Milligan
2457,-99.923,41.292,Morgan Municipal Park,CP,all year,swim,30,2546.0,E FT DW SH L$,NE,0.0,N,Callaway
2458,-98.378,40.824,Mormon Island  State Rec Area,SRA,all year,nan,38,1883.0,E ND 45ft DW NS RS PA,NE,7.3,S,Grand Island
2459,-99.998,40.866,Muny Park,CP,all year,swim,30,2494.0,WE DP FT DW L$,NE,0.9,NW,Cozad
2464,-97.776,41.751,Newman Grove City Park,CP,early apr-late 0ct,nan,10,1703.0,WES DP FT DW L$,NE,0.1,N,Newman Grove
2466,-101.706,41.254,No Name Bay - Lake McConaughy,SRA,all year,nan,nan,3280.0,NH ND NS RS,NE,8.7,N,Ogallala
2467,-98.451,41.266,North Loup  State Rec Area,SRA,nan,nan,nan,1772.0,NH ND NS NR,NE,3.6,N,St. Paul
2468,-99.21,40.073,North Outlet - Harlan County Lake,COE,nan,nan,nan,1925.0,NH ND NS NR,NE,1.9,S,Republican City
2469,-101.787,41.263,North Shore - Lake McConaughy,SRA,all year,nan,nan,3278.0,NH ND NS RS,NE,10.0,N,Ogallala
2470,-99.27,41.865,Nunda Shoal - Calamus State Rec Area,SRA,nan,nan,nan,2247.0,E DP DW SH RS,NE,9.1,NW,Burwell
2474,-101.726,41.204,Ogallala Beach - Lake McConaughy,SRA,all year,nan,nan,3273.0,NH ND NS RS,NE,5.3,N,Ogallala
2475,-97.453,40.411,Ohiowa RV Park,CP,early apr-late oct,nan,9,1588.0,WE FT DW L$,NE,0.2,S,Ohiowa
2477,-103.824,41.231,Oliver Reservoir  State Rec Area,SRA,nan,pump disabled - no water,175,4818.0,NH ND VT NW NS NR L$,NE,8.4,W,Kimball
2478,-101.986,41.301,Omaha Beach - Lake McConaughy,SRA,all year,nan,nan,3278.0,NH ND NS RS,NE,18.2,NW,Ogallala
2479,-98.245,42.335,Orchard City Park,CP,nan,nan,nan,1942.0,E DP N$,NE,0.1,W,Orchard
2480,-99.453,40.134,Orleans City RV Park,CP,all year,swim,8,2039.0,WES DP DW,NE,0.2,NE,Orleans
2481,-97.547,41.183,Osceola City Park,CP,nan,nan,6,1627.0,E DW,NE,0.3,NE,Osceola
2482,-101.924,41.297,Otter Creek - Lake McConaughy State Rec Area,SRA,all year,nan,325,3278.0,NH ND NS RS,NE,15.8,NW,Ogallala
2486,-98.083,41.856,Petersburg City Park,CP,all year,nan,18,1891.0,WES DP FT DW,NE,0.3,NW,Petersburg
2487,-98.532,41.758,Pibel Lake  State Rec Area,SRA,nan,nan,30,2007.0,NH ND VT DW NS NR L$,NE,8.8,S,Bartlett
2491,-99.704,41.183,Pressey State Wildlife Area,SFW,nan,dispersed,nan,2431.0,NH ND NW NS NR,NE,13.6,SE,Callaway
2492,-98.889,41.022,Ravenna Lake  State Rec Area,SRA,nan,nan,nan,1984.0,NR,NE,1.3,E,Ravenna
2493,-103.004,42.696,Red Cloud,NF,nan,nan,14,3898.0,NH ND NS NR L$,NE,9.2,S,Chadron
2494,-100.678,40.354,Red Willow Reservoir  State Rec Area,SRA,nan,nan,200,2611.0,E DP VT DW SH NR L$,NE,11.2,N,McCook
2495,-99.134,41.789,Riverside City Park - Burwell,CP,nan,nan,nan,2145.0,E DP SH,NE,0.5,N,Burwell
2498,-98.026,42.124,Riverside Park - Neligh,CP,nan,nan,nan,1724.0,E DP DW SH,NE,0.4,SE,Neligh
2499,-103.682,41.854,Riverside Park - Terrytown,CP,nan,nan,45,3877.0,E DP DW SH L$,NE,3.7,NW,Scotts Bluff
2501,-103.677,41.813,Robidoux RV Park,CP,nan,nan,40,3993.0,WES DP DW SH L$,NE,3.8,S,Scottsbluf
2504,-101.779,41.262,Sandy Beach - Lake McConaughy,SRA,all year,nan,nan,3286.0,NH ND NS RS,NE,9.7,N,Ogallala
2505,-99.373,40.669,Sandy Channel  State Rec Area,SRA,nan,nan,30,2244.0,NH ND NS NR,NE,3.4,S,Elm Creek
2506,-103.821,41.978,Scenic Knolls City Golf Course and Campground,CP,early mar-late sep,nan,6,4063.0,E DW,NE,2.5,N,Mitchell
2509,-98.901,41.285,Sherman Reservoir  State Rec Area,SRA,nan,nan,360,2197.0,NH DP DW SH NR L$,NE,3.5,E,Loup City
2510,-97.663,41.314,Silver Creek City Park,CP,nan,swim,nan,1545.0,E ND NS,NE,0.2,SE,Silver Creek
2511,-100.312,42.893,Smith Falls State Park,SP,nan,tent only,nan,2324.0,NH ND DW SH RS L$,NE,12.2,E,Valentine
2512,-102.453,42.411,Smith Lake State Wildlife Area,SP,nan,dispersed,nan,3798.0,NH ND NW NS NR,NE,21.1,S,Rushville
2513,-103.564,42.697,Soldier Creek,NF,nan,nan,28,4116.0,NH ND NS NR,NE,8.1,W,Crawford
2514,-99.207,40.067,South Outlet - Harlan County Lake,COE,nan,nan,60,1880.0,NH ND NS NR,NE,2.4,S,Republican City
2515,-98.953,40.092,South Park Municipal Campground,CP,all year,nan,6,1844.0,WES DP FT DW L$,NE,0.3,S,Franklin
2516,-98.361,41.685,Spalding City Park,CP,all year,nan,14,1882.0,E DP FT DW NS N$,NE,0.3,S,Spalding
2517,-98.37,41.682,Spalding Dam Site,CP,all year,nan,19,1870.0,WES ND PT DW NS L$,NE,0.6,SW,Spalding
2518,-101.874,41.289,Spring Park - Lake McConaughy,SRA,all year,nan,nan,3294.0,NH ND NS RS,NE,13.7,NW,Ogallala
2519,-99.747,42.824,Springview Rec Area,CP,nan,nan,4,2448.0,E DP FT DW SH,NE,0.1,E,Springview
2524,-101.155,42.689,Steer Creek,NF,nan,nan,21,3055.0,E ND NS NR,NE,17.6,S,Cody
2527,-98.003,40.874,Streeter Municipal Park,CP,nan,nan,18,1758.0,WE DP NS N$,NE,0.4,N,Aurora
2528,-99.14,42.606,Stuart Municipal Park,CP,nan,nan,nan,2172.0,E DP DW SH L$,NE,0.4,N,Stuart
2530,-101.137,41.126,Sutherland State Rec Area,SRA,nan,nan,85,3059.0,NH ND NS NR,NE,2.2,S,Sutherland
2531,-97.858,40.611,Sutton City Park,CP,all year,nan,25,1670.0,WES DP L$,NE,0.3,N,Sutton
2532,-101.109,40.171,Swanson Reservoir  State Rec Area,SRA,nan,nan,200,2825.0,E DP SH NR,NE,5.1,W,Trenton
2534,-97.424,42.005,Ta - Ha - Zouka Park,CP,nan,primitive,22,1509.0,E DP DW SH,NE,2.0,S,Norfolk
2536,-100.582,41.978,Thedford City Park,CP,nan,shaded - train noise,nan,2868.0,E L$,NE,0.3,W,Thedford
2537,-97.827,42.047,Tilden East City Park,CP,early apr-late oct,nan,4,1670.0,WE DP FT DW,NE,0.4,E,Tilden
2538,-103.584,42.858,Toadstool,NF,nan,has interesting geologic park,6,3783.0,NH ND VT DW NS NR,NE,15.1,NW,Crawford
2539,-99.65,41.405,Tomahawk Municipal Park,CP,nan,nan,nan,2484.0,E DP DW SH,NE,0.5,NW,Broken Bow
2540,-98.057,41.031,Tooley Park,CP,all year,unknown facilities - tent only,5,1729.0,NH ND NS,NE,3.0,NW,Marquette
2543,-99.253,40.678,Union Pacific State Rec Area,SRA,nan,no tables?,5,2195.0,NH ND VT DW NS NR L$,NE,9.1,W,Kearney
2544,-97.348,40.891,Utica City Park,CP,nan,nan,6,1588.0,E DP FT DW L$,NE,0.3,SW,Utica
2545,-100.549,42.887,Valentine City Park,CP,early may-late sep,nan,5,2488.0,NH FT DW L$,NE,1.0,N,Valentine
2547,-97.355,42.376,Veterans Memorial RV Park - Randolph,CP,nan,nan,6,1654.0,WE DP,NE,0.4,S,Randolph
2549,-99.753,41.609,Victoria Springs  State Rec Area,SRA,all year,nan,80,2520.0,E DP DW SH RS PA L$,NE,5.8,E,Anselmo
2552,-102.631,42.638,Walgren Lake  State Rec Area,SRA,nan,nan,40,3740.0,NH ND VT DW NS NR L$,NE,4.4,SE,Hay Springs
2554,-98.735,40.724,War Axe State Rec Area,SRA,nan,no tables?,8,2005.0,NH ND VT DW NS NR L$,NE,3.8,S,Shelton
2556,-99.833,40.135,West Side Park - Beaver City,CP,all year,nan,4,2175.0,E DP FT DW L$,NE,0.2,SW,Beaver City
2557,-97.726,40.419,Westside Park - Shickley,CP,nan,nan,6,1650.0,E ND DW NS L$,NE,0.2,NW,Shickley
2558,-100.264,41.796,Whitetail,NF,nan,nan,21,2690.0,NH ND NS NR,NE,8.4,W,Dunning
2559,-103.672,41.703,Wildcat Hills State Rec Area,SRA,nan,nan,30,4525.0,NH ND VT NS NR L$,NE,8.6,S,Gering
2561,-97.544,42.178,Willow Creek  State Rec Area,SRA,all year,nan,110,1612.0,E DP DW SH RS PA L$,NE,1.7,SW,Pierce
2562,-98.846,40.707,Windmill  State Rec Area,SRA,all year,nan,89,2054.0,E DP 45ft DW SH RS PA,NE,2.9,S,Gibbon
2565,-103.806,41.939,Zeigler Park - Mitchell,CP,all year,nan,4,3950.0,E FT DW L$,NE,0.4,SE,Mitchell
2681,-103.426,43.34,Angostura  State Rec Area,SRA,all year,nan,170,3226.0,E DP SH RS,SD,6.8,S,Hot Springs
2682,-103.432,44.46,Bear Butte State Park,SP,all year,nan,15,3178.0,NH ND DW NS NR L$,SD,5.1,NE,Sturgis
2683,-104.051,44.075,Beaver Creek,NF,nan,nan,8,6152.0,NH ND VT DW NS NR L$,SD,17.1,NE,Newcastle
2685,-103.512,43.775,Bismarck Lake,NF,mid may-late aug,nan,23,5243.0,NH ND DW NS RS,SD,4.4,E,Custer
2686,-103.846,44.145,Black Fox,NF,nan,nan,9,5890.0,NH ND VT NW NS NR L$,SD,6.4,W,Rochford
2688,-103.481,43.718,Blue Bell - Custer State Park,SP,nan,nan,35,4881.0,NH RS,SD,6.8,SE,Custer
2689,-103.535,44.198,Boxelder Forks,NF,nan,nan,14,4750.0,NH ND DW NS NR,SD,1.5,W,Nemo
2691,-101.732,43.177,Brooks Memorial Park,CP,nan,unknown facilities,nan,3310.0,N$,SD,0.3,N,Martin
2692,-99.297,43.185,Burke City Park,CP,nan,clean and quiet,5,2179.0,WE DP FT DW SH L$,SD,0.3,NW,Burke
2693,-99.259,43.178,Burke Lake  State Rec Area,SRA,all year,nan,15,2084.0,NH ND NS NR L$,SD,1.7,E,Burke
2695,-103.727,44.08,Castle Peak,NF,nan,nan,9,5372.0,NH ND VT NW NS NR L$,SD,12.7,NW,Hill City
2696,-101.948,43.746,Cedar Pass - Badlands National Park,NP,all year,nan,100,2413.0,NH DP 40ft NR L$,SD,15.4,S,Cottonwood
2697,-103.42,43.802,Center Lake - Custer State Park,SP,mid may-mid sep,nan,70,4746.0,NH RS,SD,9.3,E,Custer
2700,-99.438,44.52,City Park East - Highmore,CP,nan,nan,10,1885.0,E DP,SD,0.2,SE,Highmore
2702,-96.684,44.76,Clear Lake City Park,CP,nan,nan,16,1804.0,E DP DW SH L$,SD,0.3,N,Clear Lake
2703,-99.036,45.448,Colliers Park - Ipswich,CP,nan,unknown facilities,8,1545.0,NH DP,SD,0.4,NW,Ipswich
2704,-96.81,43.979,Colman City Park,CP,nan,nan,nan,1700.0,E ND FT DW SH L$,SD,0.4,SE,Colman
2705,-103.715,43.735,Comanche Park,NF,mid may-late aug,nan,33,5460.0,NH ND DW NS RS,SD,6.2,W,Custer
2706,-98.293,43.409,Corsica Lake,CP,nan,nan,15,1520.0,WE DP FT DW,SD,5.8,E,Corsica
2707,-103.571,43.44,Cottonwood,nan,nan,nan,nan,4019.0,NH ND NS,SD,4.9,W,Hot Springs
2709,-100.493,44.561,Cow Creek State Rec Area,SRA,all year,nan,40,1631.0,E ND DW SH RS L$,SD,15.0,NW,Pierre
2711,-103.797,44.025,Custer Trail,NF,nan,nan,17,5918.0,NH ND VT DW NS NR,SD,12.7,NW,Hill City
2712,-103.477,44.23,Dalton Lake,NF,nan,nan,11,4399.0,NH ND VT DW NS NR,SD,2.9,NE,Nemo
2713,-103.788,44.021,Deerfield,NF,nan,nan,25,5928.0,NR,SD,12.2,NW,Hill City
2714,-97.73,44.879,Dickenson City Park,CP,nan,nan,4,1788.0,WES DP FT DW SH,SD,0.2,NE,Clark
2715,-103.841,43.961,Ditch Creek,NF,nan,nan,13,6243.0,NH ND VT DW NS NR,SD,13.4,W,Hill City
2718,-103.781,44.022,Dutchman,NF,mid may-late aug,nan,44,6056.0,NH ND VT DW NS RS,SD,12.0,NW,Hill City
2720,-99.438,44.52,East Park - Highmore,CP,nan,nan,nan,1884.0,E DP FT DW SH L$,SD,0.2,SE,Highmore
2721,-100.397,44.469,Eastshore - Lake Oahe,COE,nan,nan,nan,1651.0,NR,SD,7.3,N,Pierre
2722,-103.492,43.565,Elk Mountain  - Wind Cave National Park,NP,nan,From 2013 on - may be CLOSED - check,75,4256.0,NH ND NS NR L$,SD,9.3,N,Hot Springs
2724,-103.069,44.143,Ellsworth AFB Military,MIL,nan,military only - do not use our lat/lon - contact them for directions and info,nan,3182.0,RS,SD,9.1,NE,Rapid City
2725,-99.634,45.772,Eureka City Park,CP,nan,nan,16,1857.0,E DP SH,SD,0.7,W,Eureka
2726,-102.037,45.019,Faith City Park,CP,nan,nan,10,2578.0,E DP L$,SD,0.3,S,Faith
2729,-99.126,45.036,Faulkton City Park,CP,nan,nan,5,1578.0,E DW NS L$,SD,0.2,NW,Faulkton
2731,-96.568,44.056,Flandreau Municipal Park,CP,nan,nan,nan,1529.0,E,SD,1.4,E,Flandreau
2732,-97.53,45.658,Fort Sisseton State Historical Park,SP,all year,nan,15,1831.0,E ND DW SH RS L$,SD,7.3,SW,Lake City
2733,-97.431,43.356,Freeman City Park,CP,nan,nan,7,1504.0,E FT DW L$,SD,0.4,NE,Freeman
2734,-103.022,43.659,French Creek,NF,nan,nan,7,2910.0,E ND NS NR,SD,9.7,E,Fairburn
2735,-103.375,43.76,Game Lodge - Custer State Park,SP,mid apr-late oct,nan,60,4169.0,NH DP DW SH RS,SD,11.2,E,Custer
2737,-99.959,45.008,Gettysburg City Park,CP,nan,unknown facilities,nan,2060.0,DP L$,SD,0.3,SW,Gettysburg
2738,-103.402,43.777,Grace Coolidge - Custer State Park,SP,mid may-late sep,nan,25,4360.0,NH DW SH RS,SD,9.9,E,Custer
2740,-103.44,43.877,Grizzly Bear,NF,nan,nan,20,4501.0,NH ND VT DW NS NR,SD,1.7,SW,Keystone
2741,-103.435,43.884,Grizzly Creek Primative,NF,mid may-late aug,no towed vehicles - one 28 foot vehicle per site,20,4606.0,NH VT DW RS NP,SD,1.1,SW,Keystone
2744,-103.851,44.275,Hanna,NF,mid may-mid sep,nan,13,5561.0,NH ND VT DW NS NR,SD,6.8,SW,Lead
2747,-101.731,43.169,Hodson Memorial Park,CP,nan,unknown facilities,nan,3312.0,N$,SD,0.3,S,Martin
2748,-103.484,43.895,Horsethief Lake,NF,mid may-late aug,nan,40,4955.0,NH ND DW NS RS,SD,3.3,W,Keystone
2749,-97.522,44.009,Howard City Park,CP,nan,nan,6,1558.0,WES DP FT DW SH,SD,0.3,SE,Howard
2751,-97.072,43.64,Humboldt City Park,CP,nan,unknown facilities,10,1702.0,E,SD,0.4,S,Humboldt
2753,-100.384,45.517,Indian Creek - Lake Oahe,SRA,all year,nan,125,1635.0,E DP SH RS,SD,2.6,SE,Mobridge
2754,-100.486,45.575,Indian Memorial - Lake Oahe,COE,nan,nan,80,1627.0,NR,SD,3.9,NW,Mobridge
2756,-102.2,45.761,Ketterlings Point - Shadehill  State Rec Area,SRA,all year,nan,50,2336.0,RS,SD,12.6,S,Lemmon
2758,-96.479,44.714,Lake Cochrane State Rec Area,SRA,all year,nan,30,1693.0,E DP DW SH RS,SD,10.5,E,Clear Lake
2759,-97.164,43.988,Lake Herman State Park,SP,all year,nan,72,1660.0,E DP DW SH RS,SD,2.8,SW,Madison
2760,-99.987,45.547,Lake Hiddenwood State Park,SP,all year,nan,15,1780.0,E ND NS NR L$,SD,3.6,NE,Selby
2761,-99.146,44.621,Lake Louise  State Rec Area,SRA,all year,nan,40,1589.0,E DP DW SH RS,SD,10.5,NW,Miller
2763,-100.29,45.904,Lake Pocasse,CP,nan,nan,nan,1633.0,NH,SD,0.2,NW,Pollock
2764,-97.094,44.534,Lake Poinsett  State Rec Area,SRA,all year,nan,110,1679.0,E DP SH RS,SD,11.9,N,Arlington
2769,-103.467,43.764,Legion Lake - Custer State Park,SP,mid may-mid sep,nan,25,5058.0,NH DW SH RS,SD,6.6,E,Custer
2770,-98.931,45.73,Leola City Park,CP,nan,unknown facilities,6,1578.0,E,SD,0.7,NE,Leola
2772,-98.343,43.322,Lions City Park - Armour,CP,nan,great place,10,1515.0,WE DP DW SH L$,SD,0.3,NE,Armour
2775,-103.269,44.149,Little Jon Park,CP,nan,non profit park - memorial to child,6,3397.0,WE DP DW SH,SD,5.1,N,Rapid City
2777,-102.182,45.774,Llewellyn Johns  State Rec Area,SRA,all year,nan,10,2251.0,NH ND NS RS,SD,11.6,S,Lemmon
2778,-97.134,44.365,Maxwell Park - Arlington,CP,nan,nan,nan,1842.0,E ND NS L$,SD,0.1,NW,Arlington
2781,-97.244,44.918,Memorial Park - Watertown,CP,nan,nan,95,1719.0,E DP SH,SD,6.4,W,Watertown
2783,-101.135,44.082,Midland Rest Area,CP,nan,nan,nan,2044.0,NH PT DW N$,SD,1.3,NE,Midland
2784,-98.994,44.523,Miller City Park,CP,nan,nan,32,1565.0,E DP L$,SD,0.4,NW,Miller
2787,-97.129,44.361,Norland Park - Arlington,CP,nan,view of lake - unknown facilities,nan,1831.0,E ND NS L$,SD,0.3,SE,Arlington
2790,-96.988,44.45,Oakwood Lakes State Park,SP,all year,nan,140,1643.0,E DP 45ft SH RS,SD,9.2,N,Volga
2792,-100.505,44.568,Okobojo Point Rec Area,CP,nan,nan,17,1629.0,NH ND DW SH L$,SD,15.8,NW,Pierre
2793,-103.612,43.878,Oreville,NF,mid may-late aug,nan,24,5336.0,NH ND VT DW NS RS,SD,4.2,SW,Hill City
2794,-103.498,44.059,Pactola,NF,mid may-late aug,nan,77,4613.0,NH ND 35ft VT DW NS RS,SD,9.6,NE,Hill City
2798,-97.209,44.847,Pelican Lake  State Rec Area,SRA,all year,nan,45,1742.0,E DP 45ft DW SH RS,SD,5.8,SW,Watertown
2799,-97.284,45.503,Pickerel Lake  State Rec Area,SRA,all year,nan,75,1847.0,E DP DW SH RS,SD,11.8,N,Waubay
2800,-103.484,45.874,Picnic Spring,NF,nan,nan,9,3248.0,NH ND NS NR,SD,32.5,NE,Camp Crook
2801,-97.833,45.462,Pierpont City Park,CP,nan,unknown facilities,50,1509.0,NH ND NS,SD,2.3,S,Pierpont
2807,-103.177,45.521,Reva Gap,NF,nan,nan,5,3180.0,NH ND NS NR N$,SD,38.7,E,Camp Crook
2810,-103.521,43.598,Rifle Pit,nan,nan,nan,nan,4623.0,NH ND NS,SD,12.3,S,Custer
2812,-103.963,44.339,Rod And Gun,NF,nan,nan,7,5375.0,NH ND DW NS NR,SD,11.7,SW,Spearfish
2813,-99.339,45.449,Roscoe City Park,CP,nan,nan,8,1831.0,E ND FT DW NS,SD,0.0,S,Roscoe
2814,-103.663,44.199,Roubaix Lake,NF,mid may-late aug,nan,56,5520.0,NH ND DW NS RS N$,SD,12.7,S,Deadwood
2815,-97.42,45.703,Roy Lake State Park,SP,all year,nan,100,1821.0,E DP 45ft DW SH RS,SD,1.5,S,Lake City
2816,-97.24,44.894,Sandy Shore  State Rec Area,SRA,all year,nan,20,1719.0,E DW SH RS,SD,6.1,W,Watertown
2818,-96.805,44.318,Sexauer City Park,CP,nan,nan,13,1601.0,E DP DW SH L$,SD,0.6,NW,Brookings
2819,-103.477,43.967,Sheridan Lake,NF,mid may-late aug,nan,110,4707.0,NH ND VT DW NS RS,SD,5.5,NE,Hill City
2820,-97.228,45.741,Sieche Hollow State Park,SP,all year,nan,10,1652.0,NH ND NS NR,SD,10.1,NW,Sisseton
2822,-103.86,44.481,Spearfish City Campground,CP,nan,nan,62,3689.0,WES DP 40ft DW SH,SD,0.7,S,Spearfish
2827,-103.537,43.771,Stockade Lake S - Custer State Park,SP,mid may-late aug,nan,35,5187.0,NH DW SH RS,SD,46.9,SE,Victoria
2828,-97.17,44.931,Stokes - Thomas Lake,CP,nan,nan,54,1722.0,E,SD,3.5,NW,Watertown
2830,-103.566,43.846,Sylvan Lake - Custer State Park,SP,mid may-late sep,nan,40,6198.0,NH DW SH RS,SD,5.7,N,Custer
2832,-97.17,44.931,Thomas Lake  - Stokes,CP,nan,swim,72,1722.0,WE DP DW SH,SD,3.5,NW,Watertown
2833,-97.369,44.36,Thorsness Park,CP,nan,nan,8,1719.0,E DP FT DW SH N$,SD,0.5,SE,Lake Preston
2834,-103.988,44.328,Timon,NF,nan,nan,7,5588.0,NH ND DW NS NR,SD,12.9,SW,Spearfish
2837,-96.655,44.759,Ulven City Park,CP,nan,nan,24,1790.0,E ND NS L$,SD,1.5,E,Clear Lake
2839,-97.03,43.96,Walkers Point State Rec Area,SRA,all year,nan,43,1611.0,E DP DW SH RS,SD,5.3,SE,Madison
2840,-97.56,44.386,Washington Park,CP,nan,nan,nan,1755.0,E ND FT DW SH L$,SD,0.5,W,De Smet
2841,-97.297,45.341,Waubay City Park,CP,nan,unknown facilities,20,1808.0,E L$,SD,0.8,NE,Waubay
2842,-97.518,45.338,Webster City Park,CP,nan,unknown facilities,nan,1836.0,E DP N$,SD,0.4,N,Webster
2844,-98.573,44.076,Wessington Springs City Park,CP,nan,nan,nan,1723.0,E DP FT DW SH,SD,2.1,W,Wessington Spr
2848,-100.333,45.995,West Pollock State Rec Area,SRA,all year,nan,29,1864.0,E DP FT SH NR,SD,6.8,N,Pollock
2851,-100.44,44.445,Westshore - Lake Oahe,COE,nan,nan,nan,1812.0,NR,SD,7.1,NW,Fort Pierre
2853,-103.803,44.013,Whitetail,NF,mid may-late aug,nan,17,5984.0,NH ND VT DW NS RS,SD,12.6,NW,Hill City
2855,-103.47,43.887,Wrinkled Rock,NF,nan,nan,7,5203.0,NH ND NS NR,SD,2.6,W,Keystone
2858,-88.731,45.371,Ada Lake,NF,nan,nan,27,1672.0,NH NR,WI,5.8,SW,Wabeno
2862,-89.061,45.937,Anvil Lake,NF,nan,nan,18,1732.0,NH NR,WI,8.9,E,Eagle River
2880,-89.788,46.163,Big Lake - North Highland/Amer Legion State Forest,SF,nan,nan,nan,1631.0,NH ND PT DW NS NR L$,WI,18.9,N,Woodruff
2881,-89.619,46.004,Big Muskellunge Lake -  North Highland/Amer Legion State Forest,SF,nan,nan,nan,1654.0,NH ND FT DW SH NR,WI,8.3,NE,Woodruff
2887,-89.845,43.026,Blue Mound State Park,SP,all year,nan,nan,1526.0,E DP DW SH RS PA,WI,2.7,E,Barneveld
2896,-88.796,46.029,Brule River,NF,nan,nan,11,1548.0,NH VT DW NR,WI,27.1,W,Florence
2902,-89.633,45.889,Carrol Lake - North Highland/Amer Legion State Forest,SF,nan,nan,nan,1601.0,NH ND PT DW NS NR L$,WI,3.2,E,Woodruff
2910,-89.65,45.867,Clear Lake - North Highland/Amer Legion State Forest,SF,all year,nan,95,1621.0,NH ND FT DW SH RS,WI,3.1,SE,Woodruff
2923,-89.614,45.999,Crystal Lake - North Highland/Amer Legion State Forest,SF,all year,nan,180,1660.0,NH ND FT DW SH RS,WI,8.1,NE,Woodruff
2925,-89.584,45.848,Cunard Lake - North Highland/Amer Legion State Forest,SF,nan,nan,33,1614.0,NH ND PT DW NS NR L$,WI,6.4,SE,Woodruff
2940,-89.467,46.026,East Star Lake - North Highland/Amer Legion State Forest,SF,nan,nan,nan,1686.0,NH ND PT DW NS NR,WI,0.9,S,Star Lake
2944,-90.011,45.964,Emily Lake,NF,nan,nan,11,1575.0,NH NR,WI,20.8,E,Park Falls
2948,-89.633,46.002,Firefly Lake - North Highland/Amer Legion State Forest,SF,nan,nan,70,1647.0,NH ND FT DW SH NR,WI,7.9,NE,Woodruff
2951,-88.993,45.931,Franklin Lake,NF,mid may-late aug,nan,77,1723.0,NH RS,WI,12.1,E,Eagle River
2969,-89.113,45.311,High Lake County Park,CP,nan,nan,7,1611.0,NH ND PT NS,WI,11.9,N,Antigo
2971,-90.441,45.94,Hines City Park,CP,nan,nan,10,1501.0,WE FT DW,WI,0.4,N,Park Falls
2978,-89.639,45.825,Indian Mounds - North Highland/Amer Legion State Forest,SF,nan,nan,35,1581.0,NH ND PT DW NS NR L$,WI,5.7,SE,Woodruff
2986,-88.98,45.993,Kentuck Lake,NF,nan,nan,31,1731.0,NH NR,WI,13.7,E,Eagle River
2990,-89.152,46.136,Lac Vieux Desert,NF,nan,nan,31,1690.0,NH NR,WI,15.8,N,Eagle River
2994,-90.158,46.15,Lake of the Falls,CP,nan,nan,35,1574.0,E,WI,20.8,S,Hurley
2999,-89.105,45.33,Langlade County Veterans Memorial Park,CP,nan,nan,nan,1655.0,E DP DW SH,WI,13.3,N,Antigo
3001,-89.111,45.816,Laurel Lake,nan,nan,nan,12,1625.0,NH,WI,9.5,SE,Eagle River
3006,-88.558,45.884,Lost Lake,NF,nan,nan,27,1519.0,NH NR,WI,4.6,SE,Tipler
3008,-88.962,45.903,Luna White Deer,NF,nan,nan,46,1716.0,NH NR,WI,14.8,W,Long Lake
3048,-89.646,46.064,North Trout Lake - North Highland/Amer Legion State Forest,SF,nan,nan,45,1618.0,NH ND PT DW NS NR L$,WI,11.8,N,Woodruff
3055,-89.548,45.444,Otter Lake,CP,nan,nan,25,1648.0,nan,WI,9.7,N,Gleason
3069,-88.99,45.688,Pine Lake,NF,nan,nan,12,1634.0,NH NR,WI,17.5,NW,Laona
3073,-90.29,45.443,Pioneer Park - Ogema,CP,nan,unknown facilities,5,1555.0,NH ND NS,WI,0.4,E,Ogema
3075,-89.555,45.993,Plum Lake - North Highland/Amer Legion State Forest,SF,nan,nan,nan,1667.0,NH ND PT DW NS NR L$,WI,9.6,NE,Woodruff
3080,-89.533,46.023,Razorback Lake - North Highland/Amer Legion State Forest,SF,nan,nan,55,1686.0,NH ND PT DW NS RS L$,WI,11.8,NE,Woodruff
3082,-89.687,44.921,Rib Mountain State Park,SP,all year,closed for 2010 season,30,1798.0,E DW SH RS PA,WI,3.9,SW,Wausau
3083,-88.713,45.442,Richardson Lake,NF,nan,nan,26,1581.0,NH NR,WI,8.7,S,Laona
3094,-90.277,45.843,Sailor Lake,NF,early may-late oct,nan,25,1526.0,NH RS,WI,10.1,SE,Park Falls
3097,-89.968,46.103,Sandy Beach Lake - North Highland/Amer Legion State Forest,SF,nan,nan,35,1588.0,NH ND PT DW NS NR L$,WI,19.3,NW,Woodruff
3101,-90.156,46.324,Schomberg Park,CP,nan,ATV park,nan,1598.0,E DP FT DW SH,WI,8.8,S,Hurley
3103,-89.043,45.878,Sevenmile Lake,NF,nan,nan,31,1710.0,NH NR,WI,8.0,NE,Three Lakes
3109,-90.172,45.912,Smith Rapids,NF,early may-late oct,nan,11,1542.0,NH ND NS RS,WI,13.0,E,Park Falls
3113,-89.654,46.021,South Trout Lake - North Highland/Amer Legion State Forest,SF,nan,nan,nan,1670.0,NH ND PT DW NS NR L$,WI,8.8,N,Woodruff
3117,-89.009,46.01,Spectacle Lake,NF,nan,nan,41,1769.0,NH NR,WI,13.0,NE,Eagle River
3119,-89.575,46.025,Starrett Lake - North Highland/Amer Legion State Forest,SF,nan,nan,45,1640.0,NH ND PT DW NS NR L$,WI,10.7,NE,Woodruff
3120,-88.713,45.925,Stevens Lake,NF,nan,nan,6,1556.0,NH ND NS NR,WI,22.2,W,Florence
3135,-90.072,45.955,Twin Lakes,NF,early may-late oct,nan,17,1591.0,NH ND NS RS,WI,17.8,E,Park Falls
3137,-89.725,46.072,Upper Gresham Lake - North Highland/Amer Legion State Forest,SF,nan,nan,nan,1614.0,NH ND PT DW NS NR L$,WI,12.2,N,Woodruff
3144,-90.001,45.973,Wabasso Lake,nan,nan,nan,3,1586.0,NH ND NS,WI,5.2,W,Lac Du Flambea
3155,-89.475,46.033,West Star Lake - North Highland/Amer Legion State Forest,SF,nan,nan,nan,1690.0,NH ND PT DW NS NR,WI,4.3,NE,Sayner
3163,-88.861,45.93,Windsor Dam,NF,nan,nan,8,1663.0,NH ND NS NR,WI,18.5,E,Eagle River
3193,-73.292,42.205,Beartown State Forest,SF,early jun-late aug,nan,12,1643.0,NH ND VT DW NS RS PA L$,MA,4.5,NW,Monterey
3208,-73.188,42.632,Mt. Greylock State Reservation,SR,early jun-late sep,nan,35,2404.0,NH RS PA,MA,5.6,S,Williamstown
3214,-73.32,42.504,Pittsfield State Forest,SF,early jun-late sep,nan,30,2110.0,NH RS PA,MA,2.7,S,Hancock
3216,-73.047,42.647,Savoy Mountain State Forest,SF,early jun-late sep,nan,45,1987.0,NH DP DW SH RS PA,MA,2.3,SW,Florida
3225,-72.986,42.554,Windsor State Forest,SF,all year,nan,24,1850.0,NH ND VT DW NS RS PA L$,MA,17.2,NW,Williamsburg
3233,-79.14,39.545,Big Run State Park,SP,all year,nan,29,1510.0,NH ND DW NS RS PA,MD,10.4,S,Grantsville
3238,-79.31,39.516,Deep Creek Lake State Park,SP,mid apr-mid dec,nan,112,2568.0,E DP DW SH RS PA,MD,5.8,NW,Swanton
3252,-79.272,39.378,Lost Land Run  - Potomac State Forest,SF,nan,dispersed - no toilets near sites,6,2352.0,NH ND NW NS NR,MD,7.5,E,Oakland
3258,-79.386,39.717,Mill Run - Youghiogheny River Lake,COE,nan,swim beach,nan,1565.0,NH DP FT DW NS NR,MD,3.8,N,Friendsville
3259,-79.129,39.631,New Germany State Park,SP,all year,nan,48,2567.0,NH DP DW SH RS PA,MD,4.6,S,Grantsville
3264,-79.148,39.619,Savage River State Forest,SP,nan,dispersed - no facilities,52,2386.0,NH ND NW NS NR,MD,5.2,S,Grantsville
3271,-79.422,39.499,Swallow Falls State Park,SP,all year,nan,65,2407.0,E ND DW SH RS PA,MD,6.4,N,Oakland
3273,-79.269,39.346,Wallman/Laurel Run - Potomac State Forest,SF,nan,pretty area - dispersed - no toilets near sites,16,2195.0,NH ND NW NS NR,MD,8.5,SE,Oakland
3294,-70.72,44.939,Rangeley Lake State Park,SP,mid may-early oct,nan,50,1544.0,NH DW SH RS,ME,4.2,SW,Rangeley
3297,-68.859,45.92,Roaring Brook - Baxter State Park,SP,mid may-mid oct,for reservations go to www.baxterstateparkauthority.com/,10,1523.0,NH ND VT NS RS,ME,19.5,N,Millinocket
3308,-71.561,44.049,Big Rock,NF,mid may-mid oct,nan,28,1542.0,NH ND VT NS NR,NH,5.6,E,Lincoln
3311,-71.696,44.177,Cannon Mountain RV Park,SP,early jun-late sep,nan,7,1952.0,E DP SH RS,NH,4.3,SE,Franconia
3312,-71.884,43.651,Cardigan Campsites,AMC,nan,Walk In - wheelbarrows,17,1623.0,NH ND PT DW NS,NH,5.3,NW,Alexandria
3314,-71.328,44.944,Coleman State Park,SP,early jun-late sep,nan,24,2247.0,NH DP DW SH RS PA,NH,9.8,SE,Stewartstown
3316,-71.191,45.191,Deer Mountain,SF,early jun-late sep,nan,25,1978.0,NH RS PA,NH,13.7,NE,Pittsburg
3318,-71.4,44.178,Dry River - Crawford Notch State Park,SP,early jun-late sep,nan,35,1558.0,NH RS PA,NH,7.2,N,Harts Location
3324,-71.556,44.25,Haystack Road,NF,nan,nan,11,1762.0,NR,NH,1.6,SW,Twin Mountain
3326,-71.685,44.139,Lafayette - Franconia Notch State Park,SP,mid may-late dec,nan,98,1932.0,NH DP 30ft SH RS,NH,1.0,S,Franconia Notch
3328,-71.224,44.572,Milan Hill State Park,SP,early jun-late sep,primitive,10,1722.0,NH ND PT NW NS RS PA,NH,1.9,W,Milan
3332,-72.063,43.321,Mount Sunapee,SP,early jun-late sep,primitive - on platforms,nan,1890.0,NH ND VT DW NS RS PA,NH,1.4,W,Newbury
3336,-72.116,43.234,Pillsbury State Park,SP,early jun-late sep,nan,40,1755.0,NH 35ft RS PA,NH,4.1,N,Washington
3337,-71.649,44.009,Russell Pond,NF,mid may-mid oct,nan,86,1795.0,NH ND DW SH NR,NH,2.3,SE,Lincoln
3339,-71.505,44.26,Sugarloaf 1,NF,mid may-late sep,nan,32,1611.0,NH ND VT NS RS PA,NH,2.0,E,Twin Mountain
3340,-71.504,44.258,Sugarloaf 2,NF,mid may-late sep,nan,29,1663.0,NH ND NS RS PA,NH,2.1,SE,Twin Mountain
3379,-75.069,42.118,Bear Spring Mountain - DEC,SPR,mid may-late aug,nan,nan,1912.0,NH DP DW SH RS PA,NY,4.7,SE,Walton
3385,-75.68,42.522,Bowman Lake State Park,SP,mid may-late sep,nan,nan,1712.0,NH DP DW SH RS PA,NY,6.9,NW,Oxford
3386,-74.118,44.505,Buck Pond - DEC,SPR,mid may-late aug,nan,nan,1681.0,NH DP DW SH RS PA,NY,5.9,NE,Gabriels
3390,-74.468,43.125,Caroga Lake - DEC,SPR,mid may-late aug,nan,nan,1506.0,NH DP DW SH RS PA,NY,9.6,NW,Johnstown
3402,-74.821,44.197,Cranberry Lake  - DEC,SPR,mid may-mid oct,nan,nan,1605.0,NH DP DW SH RS PA,NY,1.9,SE,Cranberry Lake
3409,-74.208,42.151,Devils Tombstone - DEC,SPR,mid may-late sep,nan,nan,1920.0,NH RS PA,NY,3.2,NE,Lanesville
3414,-74.712,43.763,Eighth Lake - DEC,SPR,mid may-late sep,nan,nan,1791.0,NH DP DW SH RS PA,NY,4.1,E,Inlet
3418,-74.365,44.308,Fish Creek Pond - DEC,SPR,mid may-mid oct,nan,nan,1582.0,NH DP DW SH RS PA,NY,7.6,NE,Tupper Lake
3420,-74.525,43.905,Forked Lake - DEC,SPR,mid may-late aug,nan,nan,1752.0,NH RS PA,NY,7.0,SW,Long Lake
3423,-75.128,42.573,Gilbert Lake State Park,SP,mid may-late sep,nan,nan,1553.0,E DP 50ft DW SH RS PA,NY,3.5,NW,Laurens
3425,-74.592,43.817,Golden Beach - DEC,SPR,mid may-late aug,nan,nan,1800.0,NH DP DW SH RS PA,NY,26.5,N,Piseco
3444,-74.389,43.838,Lake Durant - DEC,SPR,mid may-late sep,nan,nan,1779.0,NH DP SH RS PA,NY,7.3,NW,Indian Lake
3445,-74.463,43.988,Lake Eaton - DEC,SPR,mid may-late aug,nan,nan,1731.0,NH DP DW SH RS PA,NY,2.4,NW,Long Lake
3448,-74.13,43.979,Lake Harris - DEC,SPR,mid may-late aug,nan,nan,1592.0,NH DP DW SH RS PA,NY,1.8,E,Newcomb
3452,-74.394,43.651,Lewey Lake - DEC,SPR,mid may-late sep,nan,nan,1672.0,NH DP DW SH RS PA,NY,11.1,SW,Indian Lake
3453,-74.796,43.718,Limekiln Lake - DEC,SPR,mid may-late aug,nan,nan,1953.0,NH DP DW SH RS PA,NY,2.5,S,Inlet
3455,-74.735,42.036,Little Pond - DEC,SPR,mid may-late sep,nan,nan,1971.0,NH DP DW SH RS PA,NY,9.0,SW,Margaretville
3456,-74.551,43.417,Little Sand Point - DEC,SPR,mid may-late aug,nan,nan,1683.0,NH DP RS PA,NY,2.3,SW,Piseco
3463,-74.287,44.578,Meacham Lake - DEC,SPR,mid may-late sep,nan,nan,1555.0,NH DP DW SH RS PA,NY,18.7,S,Malone
3465,-74.399,43.493,Moffitt Beach - DEC,SPR,mid may-late sep,nan,nan,1757.0,NH DP DW SH RS PA,NY,1.9,W,Speculator
3466,-74.691,41.957,Mongaup Pond - DEC,SPR,mid may-late sep,nan,nan,2155.0,NH DP DW SH RS PA,NY,3.5,NE,DeBruce
3473,-74.982,43.688,Nicks Lake - DEC,SPR,mid may-late sep,nan,nan,1753.0,NH DP SH RS PA,NY,9.4,S,Webb
3474,-74.037,42.203,North/South Lake  - DEC,SPR,early may-mid oct,nan,nan,2179.0,NH DP SH RS PA,NY,3.2,E,Haines Falls
3477,-77.407,42.71,Ontario County Park - Gannet Hill,CP,mid may-mid oct,unknown facilities,nan,2256.0,E RS,NY,6.5,N,Naples
3478,-75.418,42.181,Oquaga Creek State Park,SP,all year,nan,nan,1658.0,NH DP DW SH RS PA,NY,8.4,S,Bainbridge
3482,-74.582,43.399,Point Comfort - DEC,SPR,mid may-late aug,nan,nan,1689.0,NH RS PA,NY,4.3,SW,Piseco
3484,-74.54,43.428,Poplar Point - DEC,SPR,mid may-late aug,nan,nan,1682.0,NH RS PA,NY,1.4,SW,Piseco
3491,-74.407,44.307,Rollins Pond - DEC,SPR,mid may-late aug,nan,nan,1591.0,NH DP DW SH RS PA,NY,6.4,NE,Tupper Lake
3525,-78.78,40.342,Adams Croyle,UTIL,nan,nan,nan,1685.0,nan,PA,2.7,S,Summerhill
3527,-79.112,41.525,Beaver Meadows Rec Area,NF,early jun-mid dec,nan,51,1751.0,NH ND NS RS L$,PA,3.9,N,Marienville
3528,-78.059,40.915,Black Moshannon State Park,SP,mid apr-late dec,nan,nan,1901.0,E DP 40ft DW SH RS PA,PA,8.6,E,Philipsburg
3529,-78.579,40.295,Blue Knob State Park,SP,early apr-mid oct,nan,nan,2568.0,E DP 40ft DW SH RS PA,PA,6.8,NW,Imler
3536,-77.821,41.663,Cherry Springs State Park,SP,mid apr-mid dec,nan,30,2297.0,NH DP NR NP,PA,12.9,SE,Coudersport
3541,-77.466,41.701,Colton Point State Park,SP,mid apr-mid oct,nan,nan,1649.0,NH DP NR NP,PA,9.2,W,Wellsboro
3542,-79.22,41.365,Cook Forest State Park,SP,nan,nan,nan,1583.0,E DP DW SH RS PA,PA,2.3,N,Cooksburg
3548,-78.843,40.569,Duman Lake County Park,CP,nan,nan,6,1748.0,E DP DW SH,PA,3.7,SW,Nicktown
3549,-78.595,41.564,East Branch Lake,COE,nan,nan,nan,1736.0,E DP DW SH NR,PA,4.9,E,Wilcox
3555,-79.259,41.69,Hearts Content Rec Area,NF,nan,nan,36,1909.0,NH DP RS,PA,12.2,SW,Warren
3558,-77.186,41.806,Hills Creek State Park,SP,mid apr-late oct,nan,nan,1531.0,E DP DW SH RS PA,PA,7.1,NE,Wellsboro
3564,-79.494,39.885,Kentuck - Ohiopyle State Park,SP,early mar-mid dec,nan,200,1565.0,E DP DW SH RS NP,PA,0.9,N,Ohiopyle
3568,-79.23,40.06,Kooser State Park,SP,early apr-mid oct,nan,nan,2311.0,E DP RS PA,PA,8.8,NW,Somerset
3572,-79.218,40.009,Laurel Hill State Park,SP,early apr-mid oct,nan,nan,2222.0,E DP 40ft DW SH RS PA,PA,7.4,W,Somerset
3574,-77.45,41.698,Leonard Harrison State Park,SP,early apr-mid oct,nan,nan,1809.0,E DP RS NP,PA,8.5,SW,Wellsboro
3581,-77.778,41.723,Lyman Run State Park,SP,early apr-mid dec,2 campgrounds,35,1732.0,E DP FT DW SH RS PA,PA,7.1,W,Galeton
3589,-78.83,40.466,Nanty Glo Municipal Park,CP,nan,nan,nan,1712.0,nan,PA,0.4,SE,Nanty Glo
3593,-78.509,41.202,Parker Dam State Park,SP,mid apr-late dec,nan,nan,1630.0,E DP FT DW SH RS PA,PA,3.5,E,Penfield
3594,-77.891,41.697,Patterson State Park,SP,nan,nan,nan,2465.0,NH ND NS NR NP,PA,13.1,W,Galeton
3595,-77.701,40.728,Penn Roosevelt State Park,SP,nan,rustic,18,1633.0,NH ND VT DW NS NR PA,PA,23.4,NE,Huntingdon
3601,-75.21,41.32,Promised Land State Park,SP,all year,nan,nan,1753.0,45ft RS PA,PA,5.0,E,Greentown
3602,-78.965,40.17,Quemahoning Family Rec Area,UTIL,nan,nan,63,1667.0,E DP DW SH,PA,5.4,E,Jennerstown
3605,-77.192,40.992,RB Winter State Park,SP,mid apr-mid dec,nan,nan,1524.0,RS PA,PA,9.1,NW,Mifflinburg
3607,-78.793,41.49,Red Mill,NF,nan,nan,10,1523.0,NH ND NS NR,PA,5.9,NW,Ridgway
3610,-76.296,41.336,Ricketts Glen State Park,SP,all year,nan,nan,2243.0,NH DP DW SH RS PA,PA,10.7,NE,Benton
3612,-78.531,41.108,S.B. Elliott State Park,SP,mid apr-early oct,nan,nan,2118.0,NH DP NS NR NP,PA,7.3,S,Penfield
3620,-76.698,41.646,Sunfish Pond County Park,CP,nan,nan,50,2082.0,E DP FT DW SH RS,PA,2.1,S,Leroy
3624,-75.397,41.207,Tobyhanna State Park,SP,mid apr-mid dec,nan,nan,1985.0,NH DP 45ft DW SH RS PA,PA,2.3,NE,Tobyhanna
3627,-78.876,41.943,Tracy Ridge Rec Area,NF,mid may-mid dec,nan,119,2236.0,NH DP NS RS L$,PA,11.7,W,Bradford
3629,-79.415,39.782,Tub Run Rec Area - Youghiogheny River Lake,COE,mid may-late aug,nan,101,1582.0,E DP DW SH RS PA,PA,3.8,SW,Confluence
3631,-78.756,41.614,Twin Lakes Rec Area,NF,mid may-mid dec,nan,211,1770.0,E DP DW SH RS,PA,4.4,NW,Wilcox
3646,-82.528,36.868,Bark Camp,NF,nan,nan,71,2829.0,E DP SH NR,VA,6.3,SW,Coeburn
3648,-81.682,36.667,Beartree,NF,early may-late oct,nan,90,3097.0,NH DP DW SH RS PA,VA,6.1,E,Damascus
3651,-78.439,38.527,Big Meadows - Shenandoah National Park,NP,early may-late nov,nan,nan,3576.0,NH DP DW SH RS PA,VA,4.8,SE,Stanley
3652,-79.884,38.069,Blowing Springs,NF,all year,nan,40,1713.0,NH DP DW NR L$,VA,20.0,N,Covington
3653,-79.974,37.985,Bolar Mountain,NF,early apr-late nov,3 campgrounds,90,1585.0,E DP DW SH RS,VA,13.3,N,Covington
3654,-82.295,37.29,Breaks InterState Park,SP,nan,nan,nan,1798.0,E RS,VA,5.9,N,Haysi
3659,-82.679,37.102,Cane Patch,NF,nan,nan,34,1657.0,E DP DW SH NR,VA,4.5,W,Pound
3662,-82.922,36.802,Cave Springs,NF,nan,nan,64,1598.0,E DP SH NR,VA,2.0,NE,Dryden
3666,-80.624,37.062,Claytor Lake State Park,SP,all year,nan,nan,1927.0,E DP 35ft DW SH RS PA,VA,4.6,SE,Dublin
3667,-81.225,36.763,Comers Rock,NF,nan,nan,6,3784.0,NH NR L$,VA,4.6,SW,Speedwell
3675,-80.873,37.044,Gatewood Park,CP,nan,nan,42,2195.0,WE DP DW SH,VA,5.1,W,Pulaski
3676,-80.821,37.374,Gentrys Landing,CP,nan,nan,80,1527.0,WE DP DW SH,VA,3.0,N,Narrows
3682,-81.485,36.639,Grayson Highlands State Park,SP,all year,nan,nan,4324.0,E DP DW SH RS PA,VA,8.9,NW,Mouth Of Wilson
3683,-81.542,36.688,Grindstone,NF,early may-late nov,nan,108,3711.0,E DP SH RS PA,VA,5.4,W,Troutdale
3684,-79.822,38.099,Hidden Valley,NF,nan,nan,30,1801.0,NH DP NR L$,VA,4.0,NW,Warm Springs
3685,-82.622,36.89,High Knob,NF,nan,nan,77,3612.0,NH DP DW SH NR L$,VA,3.0,S,Norton
3687,-79.135,38.46,Hone Quarry,NF,all year,nan,51,1850.0,NH DP NS NR L$,VA,14.4,W,Harrisonburg
3689,-81.525,36.871,Hungry Mother State Park,SP,all year,nan,nan,2217.0,WES DP 35ft DW SH RS PA,VA,2.5,N,Marion
3690,-81.491,36.723,Hurricane,NF,nan,nan,30,2838.0,NH DW SH NR,VA,5.7,SW,Sugar Grove
3699,-78.477,38.436,Lewis Mountain - Shenandoah National Park,NP,nan,nan,31,3396.0,NH DW SH NR,VA,9.8,N,Stanardsville
3702,-78.669,38.246,Loft Mountain - Shenandoah National Park,NP,mid may-late oct,nan,nan,3346.0,NH DP DW SH RS PA,VA,12.3,N,Crozet
3706,-78.294,38.751,Mathews Arm - Shenandoah National Park,NP,mid jun-late oct,nan,165,3041.0,NH RS PA,VA,5.2,E,Rileyville
3707,-79.922,38.013,Mcclintic Point,NF,all year,nan,57,1601.0,NH ND NS RS L$,VA,7.5,W,Warm Springs
3708,-79.97,37.934,Morris Hill,NF,early may-late oct,nan,55,2080.0,NH DP DW SH RS PA,VA,8.8,SW,Hot Springs
3710,-82.735,36.702,Natural Tunnel State Park,SP,all year,nan,nan,1684.0,E DP DW SH RS PA,VA,3.5,E,Duffield
3714,-79.207,38.339,North River,NF,all year,nan,20,1818.0,NH ND NS NR L$,VA,15.0,NW,Staunton
3719,-79.265,37.748,Oronoco,NF,nan,dispersed - few facilities - maybe walk in only,nan,1654.0,NH ND VT NW NS NR N$,VA,0.9,NW,Oronoco
3721,-79.602,37.442,Peaks of Otter - Blue Ridge Parkway,NP,mid may-late oct,nan,nan,2577.0,NH DP RS PA,VA,8.6,NW,Bedford
3724,-82.453,37.195,Pound River - John W. Flannagan Reservoir,COE,nan,nan,nan,1554.0,E DP DW SH NR L$,VA,3.1,N,Clintwood
3726,-81.426,36.746,Raccoon Branch,NF,mid apr-late dec,free wifi,20,2834.0,E DP RS PA,VA,2.2,S,Sugar Grove
3727,-81.07,36.836,Raven Cliff,NF,nan,nan,20,2165.0,NH ND NS NR L$,VA,1.9,NE,Cripple Creek
3730,-80.345,36.833,Rocky Knob - Blue Ridge Parkway,NP,nan,nan,nan,3052.0,NH 30ft NR,VA,5.6,S,Floyd
3732,-81.285,36.865,Rural Retreat Lake,CP,nan,nan,72,2547.0,E DP DW SH,VA,12.5,SW,Wytheville
3737,-79.01,37.92,Sherando Lake - Family Campground,NF,early apr-late oct,nan,67,1906.0,E DP DW SH RS PA,VA,8.4,SW,Lyndhurst
3741,-81.181,37.01,Stony Fork,NF,early apr-late nov,nan,74,2386.0,E DP 45ft DW SH NR PA,VA,6.8,NW,Wytheville
3742,-82.111,36.646,Sugar Hollow City Park,CP,nan,nan,nan,1833.0,E DP 35ft DW SH,VA,5.6,NE,Bristol
3744,-80.077,37.605,The Pines,NF,nan,nan,18,1860.0,NH ND NS NR N$,VA,7.5,N,New Castle
3745,-79.211,38.366,Todd Lake,NF,nan,nan,116,2005.0,NH DP DW SH NR,VA,8.4,NE,West Augusta
3747,-80.886,37.198,Walnut Flats,NF,nan,nan,10,2441.0,NH ND NS NR N$,VA,3.6,E,Holly Brook
3749,-80.492,37.43,White Rocks,NF,nan,nan,69,2986.0,NH DP NS NR L$,VA,7.8,NW,Simmonsville
3751,-72.632,44.052,Allis State Park,SP,nan,nan,26,1965.0,NH DP DW NS NR,VT,8.9,N,Randolph
3758,-72.699,43.551,Calvin Coolidge State Park,SP,mid may-mid oct,nan,60,1683.0,NH DP SH RS,VT,1.6,NE,Plymouth
3760,-72.911,43.825,Chittenden Brook,NF,nan,Not recommended for RVs,17,1854.0,NH NR,VT,6.1,SW,Rochester
3763,-72.54,44.536,Elmore State Park,SP,early jun-mid oct,nan,nan,1663.0,NH DP SH RS,VT,0.8,W,Lake Elmore
3766,-72.81,43.674,Gifford Woods State Park,SP,mid may-mid oct,nan,48,1614.0,NH DP SH RS,VT,1.5,W,Killington
3768,-72.821,43.351,Greendale,NF,nan,nan,11,1736.0,NH NR,VT,4.0,NW,Weston
3769,-72.952,43.046,Grout Pond,NF,all year,nan,nan,2281.0,NH ND VT DW NS NR L$,VT,2.1,W,Stratton
3771,-72.892,43.253,Hapgood Pond,NF,mid may-late aug,nan,28,1572.0,NH DW SH RS,VT,11.0,NE,Manchester
3775,-72.813,42.851,Molly Stark State Park,SP,mid may-mid oct,nan,35,1959.0,NH DP SH RS,VT,3.2,E,Wilmington
3776,-73.027,43.919,Moosalamoo,NF,nan,nan,19,1572.0,NH ND NS NR L$,VT,3.8,S,Ripton
3777,-72.406,43.438,Mt. Ascutney State Park,SP,mid may-mid oct,nan,nan,1614.0,NH DP 30ft SH RS,VT,3.1,S,Windsor
3779,-72.289,44.32,New Discovery State Park,SP,early jun-late aug,nan,47,1755.0,NH SH RS,VT,3.9,SE,Marshfield
3783,-73.019,42.899,Red Mill Brook,NF,nan,nan,31,2188.0,NH NR,VT,9.1,E,Bennington
3786,-72.788,44.559,Smugglers Notch State Park,SP,mid may-mid oct,nan,34,1972.0,NH DP DW SH RS,VT,7.2,NW,Stowe
3790,-72.839,44.53,Underhill State Park,SP,early jun-mid oct,Steep road - Walk in - Tent only,nan,1937.0,NH ND FT NS RS,VT,3.4,NE,Underhill Center
3793,-73.039,42.89,Woodford State Park,SP,ealry jun-late sep,nan,100,2375.0,NH DP SH RS,VT,8.0,E,Bennington
3795,-80.065,39.04,Audra State Park,SP,mid apr-mid oct,nan,nan,1718.0,NH DP SH NR,WV,7.0,W,Belington
3796,-80.949,38.005,Babcock State Park,SP,mid apr-mid oct,nan,nan,2361.0,E DP DW SH RS,WV,5.7,NW,Danese
3798,-80.908,38.218,Battle Run,COE,early jun-late sep,nan,nan,1706.0,E DP DW SH RS,WV,5.3,SW,Summerville
3799,-79.679,38.93,Bear Heaven,NF,nan,nan,8,3602.0,NH ND NS NR L$,WV,9.0,E,Elkins
3800,-80.094,38.101,Beaver Creek - Watoga State Park,SP,early apr-late dec,nan,nan,2545.0,E DW SH RS,WV,23.8,NE,White Sulphur Springs
3801,-81.197,37.785,Beckley Exhibition Coal Mine Campground,CP,nan,nan,nan,2328.0,E DW SH,WV,0.7,NW,Beckley
3806,-80.524,38.296,Big Rock,NF,nan,nan,5,2157.0,NH ND NS NR L$,WV,4.9,N,Richwood
3807,-79.853,38.27,Bird Run,NF,nan,nan,10,2702.0,NR,WV,6.4,S,Dunmore
3808,-80.49,38.338,Bishop Knob,NF,nan,nan,61,3091.0,NH ND NS NR L$,WV,6.2,SE,Cowen
3809,-79.495,39.112,Blackwater Falls State Park,SP,early may-late oct,nan,nan,3106.0,E DP DW SH RS,WV,2.0,SW,Davis
3810,-80.269,37.92,Blue Bend,NF,all year,nan,21,1917.0,NH DW SH NR L$,WV,8.7,N,White Sulphur Springs
3811,-81.129,37.516,Blue Jay - Camp Creek State Park,SP,mid apr-mid oct,tent only,13,2126.0,NH PT DW RS,WV,1.1,W,Camp Creek
3812,-80.25,37.925,Blue Meadow,NF,nan,group campground - if not reserved by group individuals may use sites,17,1975.0,NH FT DW NR NP,WV,9.2,N,White Sulphur Springs
3813,-80.936,37.618,Bluestone State Park,SP,mid apr-mid oct,nan,nan,1733.0,E DP DW SH RS,WV,9.1,SE,White Oak
3814,-79.2,38.595,Brandywine,NF,nan,nan,30,1906.0,NH DP DW SH NR,WV,3.2,SE,Brandywine
3818,-79.108,38.747,Camp Run,NF,all year,high clearance vehicle,10,1650.0,NH ND NS NR N$,WV,4.7,S,Milam
3819,-79.462,39.027,Canaan Valley Resort State Park,SP,all year,for res. call park,nan,3230.0,E DP DW SH RS,WV,7.0,S,Davis
3820,-80.846,37.495,Cedar Branch - Bluestone WMA,SFW,mid apr-mid oct,Fish/Wildlife sites may have few facilitiies,45,1614.0,NH NR L$,WV,12.8,NE,Oakvale
3822,-79.77,39.678,Chestnut Ridge Regional Park,CP,nan,nan,nan,2263.0,nan,WV,7.0,W,Bruceton Mills
3826,-79.794,39.642,Coopers Rock State Forest,SF,nan,nan,nan,2151.0,E 40ft DW SH RS,WV,8.2,W,Bruceton Mills
3827,-80.442,38.325,Cranberry,NF,nan,nan,30,2513.0,NH ND NS NR L$,WV,4.3,SE,Dyer
3828,-80.215,38.288,Day Run,NF,nan,nan,12,3103.0,NH ND NS NR L$,WV,7.9,NW,Marlinton
3833,-80.354,37.753,Greenbrier State Forest,SF,nan,nan,nan,1808.0,E DW SH RS,WV,2.9,SE,Caldwell
3835,-80.194,38.312,Handley WMA,SFW,nan,has tables,13,3085.0,NH VT NR,WV,8.2,NW,Marlinton
3837,-80.366,38.667,Holly River State Park,SP,mid apr-mid oct,nan,nan,1716.0,E DP DW SH RS,WV,1.4,NE,Hacker Valley
3838,-79.602,39.18,Horseshoe,NF,early jun-late aug,nan,27,1699.0,E ND NS RS,WV,7.2,NE,Parsons
3840,-79.705,38.579,Island,NF,nan,nan,6,2984.0,NH ND NS NR N$,WV,5.0,NE,Bartow
3842,-80.808,37.513,Keatley - Bluestone WMA,SFW,mid apr-mid oct,Fish/Wildlife sites may have few facilitiies,15,1551.0,NH NR L$,WV,4.0,S,Forest Hill
3844,-80.072,38.655,Kumbrabow State Forest,SF,nan,nan,nan,3002.0,NH DW SH RS L$,WV,7.8,N,Valley Head
3845,-81.272,37.788,Lake Stephens Campground,CP,nan,nan,nan,2100.0,E DP DW SH,WV,4.6,W,Beckley
3846,-79.692,38.74,Laurel Fork,NF,nan,nan,14,3110.0,NH ND NS NR L$,WV,4.3,S,Glady
3848,-81.134,37.505,Mash Fork - Camp Creek State Park,SP,mid apr-mid oct,nan,26,2032.0,WE 40ft DW SH RS,WV,1.4,W,Camp Creek
3849,-80.005,38.012,Meadow Creek  - Lake Sherwood,NF,nan,nan,38,2687.0,NH DP DW SH NR,WV,13.1,E,Eastern
3850,-80.355,37.618,Moncove Lake State Park,SP,mid apr-late dec,nan,nan,2529.0,E DP DW SH NR,WV,4.8,NE,Gap Mills
3854,-81.876,37.424,Panther State Forest,SF,nan,nan,nan,1735.0,E NR,WV,4.3,S,Panther
3856,-80.007,38.009,Pine Run  - Lake Sherwood,NF,nan,nan,36,2686.0,NH ND DW SH NR,WV,12.8,E,Eastern
3857,-80.995,37.533,Pipestem Resort State Park,SP,all year,nan,nan,2733.0,E DP DW SH RS,WV,2.4,N,Lerona
3859,-81.208,37.947,Plum Orchard Lake WMA,SFW,all year,has tables,38,1791.0,NH VT DW NR L$,WV,2.3,W,Scarbro
3860,-79.968,38.102,Pocahontas,NF,nan,nan,9,2488.0,NH ND NS NR L$,WV,10.9,SE,Marlinton
3861,-79.316,39.032,Red Creek,NF,nan,nan,12,3884.0,NH ND NS NR L$,WV,10.4,SE,Davis
3863,-80.182,38.113,Riverside - Watoga State Park,SP,early apr-late dec,nan,nan,2038.0,E DW SH RS,WV,9.0,SW,Marlinton
3864,-79.128,39.446,Robert W. Craig - Jennings Randolph Lake,COE,early may-late sep,nan,82,1909.0,E DP FT DW SH RS,WV,4.5,N,Elk Garden
3865,-79.386,38.827,Seneca Shadows,NF,early apr-late oct,nan,90,1804.0,E DP DW SH RS PA,WV,0.8,SW,Seneca Rocks
3866,-79.922,38.307,Seneca State Forest,SF,nan,nan,nan,2676.0,NH DW SH NR L$,WV,4.3,SW,Dunmore
3867,-80.868,37.474,Shanklins Ferry - Bluestone WMA,SFW,mid apr-mid oct,Fish/Wildlife sites may have few facilitiies,80,1523.0,NH NR L$,WV,11.0,NE,Oakvale
3868,-78.664,39.205,Short Mountain WMA,SFW,nan,6 primitive campgrounds,74,2144.0,NH ND PT NW NS NR,WV,6.4,S,Augusta
3870,-79.588,38.707,Spruce Knob Lake,NF,mid apr-late sep,nan,41,4024.0,NH ND NS RS,WV,7.6,S,Whitmer
3874,-79.774,38.917,Stuart,NF,mid apr-late sep,nan,27,2262.0,E DW SH RS,WV,4.0,E,Elkins
3875,-80.445,38.249,Summit Lake,NF,nan,nan,33,3474.0,NH ND NS NR L$,WV,5.1,E,Richwood
3876,-80.231,38.342,Tea Creek,NF,nan,nan,28,2988.0,NH ND NS NR L$,WV,11.1,NW,Marlinton
3877,-79.872,39.104,Teter Creek WMA,SFW,nan,has tables,20,1846.0,NH ND VT DW NS NR,WV,2.2,SE,Meadowville
3879,-78.734,38.953,Trout Pond,NF,early may-late nov,nan,70,1992.0,E DP DW SH RS,WV,5.6,E,Lost City
3880,-81.428,37.622,Twin Falls Resort State Park,SP,mid apr-mid oct,nan,nan,2260.0,E DP DW SH RS,WV,3.7,NW,Mullens
3881,-79.994,39.308,Tygart Lake State Park,SP,mid apr-mid nov,nan,nan,1513.0,E DP 40ft DW SH RS,WV,2.7,SE,Grafton
3882,-80.975,37.846,War Ridge - New River National Scenic River,NP,nan,nan,8,2620.0,NH ND VT NW NS NR,WV,6.7,W,Meadow Bridge
3883,-80.012,38.007,West Shore - Lake Sherwood,NF,nan,3 campgrounds,155,2685.0,NH DW SH RS,WV,12.6,E,Eastern
3884,-78.689,38.925,Wolf Gap,NF,all year,nan,10,2242.0,NH DP NR N$,WV,11.5,SW,Wardensville
3887,-109.153,33.895,Alpine Divide,NF,mid may-mid sep,nan,12,8579.0,NH ND 24ft VT DW NS NR L$,AZ,3.3,N,Alpine
3888,-112.561,34.589,Alto Pit,NF,nan,Off highway vehicle camp,10,6097.0,NH ND VT NW NS NR,AZ,6.3,NW,Prescott
3889,-110.366,31.56,Apache Flats Military -  Fort Huachuca,MIL,nan,voted best - military only - do not use our lat/lon - contact them for directions and info,nan,4946.0,E DP FT DW SH RS,AZ,5.3,W,Sierra Vista
3890,-109.819,32.649,Arcadia,NF,nan,nan,19,6709.0,NH ND 22ft VT DW NS NR L$,AZ,14.4,SW,Safford
3891,-111.409,35.018,Ashurst Lake,NF,nan,nan,25,7152.0,NH ND 22ft VT DW NS NR N$,AZ,18.2,SE,Flagstaff
3892,-110.946,34.327,Aspen,NF,mid apr-mid nov,nan,148,7635.0,NH ND 32ft VT DW NS NR,AZ,22.6,E,Payson
3894,-111.204,33.714,Bachelors Cove,NF,all year,nan,100,2146.0,NH ND VT NW NS NR,AZ,5.2,NW,Roosevelt
3895,-111.639,33.84,Bartlett Flat,NF,nan,dispersed - primitive,nan,1854.0,NH ND VT NW NS NR,AZ,16.1,E,Carefree
3896,-109.307,31.781,Bathtub,NF,nan,nan,11,6132.0,NH NR,AZ,23.3,E,Elfrida
3897,-111.714,34.67,Beaver Creek,NF,nan,nan,13,3793.0,NH ND 22ft VT DW NS NR,AZ,10.8,NE,Camp Verde
3898,-109.449,34.044,Benny Creek,NF,mid may-mid sep,nan,24,8278.0,NH DP 24ft VT DW NS NR L$,AZ,10.1,SW,Eagar
3899,-111.226,33.746,Bermuda Flat,NF,nan,dispersed - primitive,nan,2130.0,NH ND 32ft PT NW NS NR,AZ,7.6,NW,Roosevelt
3900,-110.743,34.305,Black Canyon Rim,NF,mid may-mid nov,nan,21,7598.0,NH ND 16ft VT DW NS NR,AZ,4.0,SE,Forest Lakes
3901,-109.08,33.057,Black Jack,NF,nan,nan,10,6276.0,NH ND VT NW NS NR N$,AZ,12.5,E,Clifton
3902,-111.201,34.591,Blue Ridge,NF,mid may-mid sep,nan,10,6952.0,NH ND 32ft VT DW NS NR L$,AZ,41.4,SW,Winslow
3903,-110.876,31.727,Bog Springs,NF,nan,nan,13,5023.0,NH ND 22ft VT DW NS NR L$,AZ,11.2,SE,Green Valley
3904,-109.355,32.011,Bonita Canyon - Chiricahua National Monument,NP,nan,nan,22,5361.0,NH ND 29ft FT DW NS NR,AZ,32.5,SE,Willcox
3906,-111.556,35.372,Bonito - Sunset Crater National Monument,NP,mid may-mid oct,nan,44,6959.0,NH ND 35ft FT DW NS NR,AZ,12.7,N,Flagstaff
3907,-111.75,34.969,Bootlegger,NF,nan,nan,10,5217.0,VT NW NR,AZ,6.9,N,Sedona
3910,-111.66,33.74,Box Bar,NF,nan,nan,20,1526.0,NH ND VT NS NR,AZ,22.9,NE,Scottsdale
3911,-109.413,33.876,Brookchar,NF,mid may-mid nov,nan,13,9012.0,NH DP FT DW SH RS PA,AZ,17.7,SW,Eagar
3914,-109.355,33.768,Buffalo Crossing,NF,mid may-mid oct,nan,16,7575.0,NH ND 20ft VT DW NS NR L$,AZ,13.4,SW,Alpine
3915,-111.203,33.626,Burnt Corral,NF,nan,nan,13,1949.0,NH ND 22ft VT DW NS NR L$,AZ,4.9,SW,Roosevelt
3916,-113.45,34.538,Burro Creek,BLM,all year,nan,22,1932.0,NH DP 45ft FT DW NS NR L$,AZ,14.8,SE,Wikieup
3917,-109.37,31.758,Camp Rucker,nan,nan,Group,nan,5577.0,NH,AZ,30.4,N,Douglas
3919,-111.599,35.125,Canyon Vista,NF,mid may-mid oct,nan,11,6837.0,NH ND 22ft VT DW NS NR,AZ,5.8,SE,Flagstaff
3920,-110.938,32.416,Catalina State Park,SP,all year,nan,120,2644.0,E DP 35ft FT DW SH RS,AZ,13.4,N,Tucson
3922,-112.015,33.824,Cave Creek Rec Area,CP,nan,nan,38,1929.0,E DP NR,AZ,3.8,W,Cave Creek
3924,-111.865,33.971,CCC,NF,nan,all sites walk in,10,3379.0,NH ND 16ft VT DW NS NR N$,AZ,10.7,N,Carefree
3925,-113.561,33.789,Centennial Park,CP,nan,nan,nan,1834.0,NH DP FT DW SH,AZ,2.5,SW,Wenden
3926,-110.841,34.509,Chevelon Canyon Lake,NF,mid mar-mid dec,nan,10,6975.0,NH ND VT NW NS NR N$,AZ,15.1,W,Heber
3927,-110.788,34.591,Chevelon Crossing,NF,all year,nan,6,6158.0,NH ND 25ft VT NW NS NR N$,AZ,15.6,NW,Heber
3929,-111.203,33.732,Cholla,NF,nan,nan,206,2195.0,NH ND 32ft DW SH NR L$,AZ,5.9,NW,Roosevelt
3930,-111.205,33.719,Cholla Bay,NF,nan,nan,20,2185.0,NH ND 35ft FT DW NS NR,AZ,5.4,NW,Roosevelt
3931,-111.035,34.308,Christopher Creek,NF,early apr-late oct,nan,43,5715.0,NH ND 45ft VT DW NS RS,AZ,17.4,E,Payson
3932,-111.765,34.515,Clear Creek,NF,nan,nan,18,3238.0,NH ND 32ft VT NW NS NR,AZ,6.1,SE,Camp Verde
3933,-111.315,34.555,Clints Well,NF,all year,nan,7,6896.0,NH VT NW NR N$,AZ,14.1,S,Happy Jack
3934,-109.06,33.103,Coal Creek,NF,all year,nan,5,5748.0,NH ND 16ft PT NW NS NR N$,AZ,14.2,E,Clifton
3935,-109.967,31.922,Cochise Stronghold,NF,nan,nan,10,4944.0,NH ND 22ft VT NW NS NR L$,AZ,8.0,W,Sunsites
3939,-109.539,36.148,Cottonwood - Canyon de Chelly National Monument,NM,all year,nan,104,5531.0,NH DP 35ft FT DW NR L$,AZ,0.9,SE,Chinle
3940,-111.253,33.577,Crabtree Wash,NF,nan,nan,30,1939.0,NR,AZ,20.4,NE,Apache Junction
3941,-110.942,34.318,Crook,NF,mid may-mid oct,nan,26,7638.0,NH DP 32ft VT DW NS NR,AZ,8.2,W,Forest Lakes
3943,-109.891,32.68,Cunningham,NF,mid apr-mid nov,nan,10,8953.0,NH ND 22ft VT NW NS NR L$,AZ,15.1,SW,Safford
3944,-109.418,33.872,Cutthroat,NF,mid may-mid nov,nan,18,9104.0,NH DP VT DW SH RS PA,AZ,18.0,SW,Eagar
3945,-109.313,31.774,Cypress Park,NF,mid mar-mid oct,nan,7,6076.0,NH ND 16ft VT NW NS NR L$,AZ,32.7,NE,Douglas
3946,-111.485,34.956,Dairy Springs,NF,early may-late sep,nan,30,7201.0,NH ND 35ft VT DW NS RS PA,AZ,3.5,N,Mormon Lake
3947,-112.83,32.35,Darby Wells Rd Dispersed,BLM,nan,dispersed - no facil,nan,1732.0,NH ND NT NW NS NR N$,AZ,2.3,SE,Ajo
3949,-111.222,33.594,Davis Wash,NF,nan,nan,30,2008.0,NR,AZ,22.5,NE,Apache Junction
3950,-112.135,36.412,De Motte,NF,nan,nan,25,8835.0,NH ND 22ft VT DW NS NR,AZ,21.4,S,Jacob Lake
3951,-112.019,34.754,Dead Horse Ranch State Park,SP,all year,nan,127,3337.0,E DP 65ft FT DW SH RS L$,AZ,1.2,NW,Cottonwood
3952,-109.32,33.804,Deer Creek,NF,mid may-mid sep,nan,6,7812.0,NH ND VT DW NS NR L$,AZ,10.6,W,Alpine
3955,-111.823,36.039,Desert View - Grand Canyon National Park,NP,nan,nan,75,7470.0,NH ND 30ft FT DW NS NR,AZ,17.8,E,Grand Canyon
3956,-109.3,33.819,Diamond Rock,NF,mid may-mid sep,nan,12,7969.0,NH ND 10ft VT DW NS NR L$,AZ,9.2,W,Alpine
3957,-112.126,35.213,Dogtown Lake,NF,mid may-mid sep,nan,54,7087.0,NH DP 35ft PT DW NS NR N$,AZ,4.4,SE,Williams
3958,-111.493,34.943,Double Springs,NF,mid may-mid oct,nan,15,7192.0,NH ND 35ft VT DW NS NR,AZ,19.7,SE,Flagstaff
3959,-109.539,33.821,Drift Fence Lake,RES,nan,nan,20,8990.0,NH ND VT DW NS,AZ,13.8,S,Greer
3961,-110.938,33.824,Falls,NF,mid may-mid oct,nan,5,6900.0,NH ND 16ft VT NW NS NR N$,AZ,19.3,S,Young
3962,-111.29,34.343,First Crossing,NF,nan,nan,7,4852.0,NH ND NS NR,AZ,8.0,N,Payson
3963,-111.352,34.303,Flowing Springs,NF,all year,nan,40,4583.0,NH ND NS NR N$,AZ,5.2,N,Payson
3964,-110.073,34.266,Fool Hollow State Rec Area,SRA,all year,nan,123,6306.0,WE DP 45ft DW SH RS,AZ,2.6,W,Show Low
3965,-111.398,35.023,Forked Pine,NF,nan,nan,25,7123.0,NH ND 16ft VT DW NS NR,AZ,18.4,SE,Flagstaff
3966,-111.693,35.142,Fort Tuthill County Park,CP,nan,take Amex,nan,6995.0,WES ND NS,AZ,5.1,SW,Flagstaff
3967,-111.693,35.139,Fort Tuthill Military - Luke AFB,MIL,nan,military only - do not use our lat/lon - contact them for directions and info,nan,7001.0,E ND FT DW NS RS L$,AZ,5.3,SW,Flagstaff
3969,-110.342,32.833,Fourmile Canyon,BLM,nan,nan,10,3488.0,30ft FT DW NR,AZ,0.6,W,Klondyke
3970,-109.487,33.929,Gabaldon,NF,nan,nan,nan,9462.0,NH ND 16ft VT NW NS NR,AZ,16.8,SW,Eager
3971,-110.329,31.529,Garden Canyon  Military - Fort Huachuca,MIL,nan,military only - do not use our lat/lon - contact them for directions and info,nan,4881.0,E FT DW RS,AZ,3.3,W,Sierra Vista
3972,-110.685,32.378,General Hitchcock,NF,nan,nan,11,6007.0,NH ND VT NW NS NR,AZ,17.8,NE,Tucson
3973,-110.712,34.302,Gentry,NF,nan,nan,6,7733.0,NH ND VT NW NS NR L$,AZ,35.3,E,Payson
3975,-110.787,33.394,Gila County RV Park,CP,nan,nan,15,3506.0,WES DP NS,AZ,0.0,SW,Globe
3976,-111.143,32.219,Gilbert Ray,CP,nan,nan,130,2612.0,E DP 45ft FT DW NS,AZ,12.7,W,Tucson
3977,-109.382,33.187,Granville,NF,mid apr-mid nov,nan,12,6752.0,NH ND 16ft VT DW NS NR N$,AZ,9.9,N,Morenci
3978,-111.045,33.641,Grapevine Bay,NF,nan,nan,40,2297.0,NH ND DW SH NR,AZ,22.7,NW,Globe
3979,-109.413,33.873,Grayling,NF,mid may-mid nov,nan,23,9111.0,NH DP 22ft FT DW SH RS PA,AZ,17.9,SW,Eagar
3980,-112.751,32.238,Gunsite Wash Dispersed,BLM,nan,dispersed - no facil,nan,1795.0,NH ND NT NW NS NR,AZ,2.2,S,Why
3981,-110.964,34.218,Haigler Canyon,NF,nan,few facilities,14,4139.0,NH ND 20ft VT NW NS NR,AZ,8.1,N,Young
3982,-109.329,33.636,Hannagan,NF,mid may-mid sep,nan,8,9163.0,NH ND 16ft VT DW NS NR N$,AZ,18.1,SW,Alpine
3983,-109.758,33.991,Hawley Lake,RES,nan,nan,100,8202.0,NH ND VT DW NS,AZ,8.1,SE,McNary
3984,-112.285,34.17,Hazlett Hollow,NF,mid may-mid sep,nan,15,5988.0,NH ND VT DW NS NR,AZ,3.9,SE,Crown King
3985,-109.234,31.873,Herb Martyr,NF,nan,Tent Only,7,5833.0,NH ND VT NW NS NR N$,AZ,6.1,SW,Portal
3986,-112.381,34.511,Hilltop,NF,mid apr-mid oct,nan,38,5656.0,NH ND 40ft VT DW NS NR,AZ,5.4,E,Prescott
3987,-110.63,35.024,Homolovi Ruins State Park,SP,all year,nan,53,4921.0,E DP 80ft FT DW SH RS L$,AZ,3.8,E,Winslow
3988,-109.481,33.475,Honeymoon,NF,mid may-mid sep,nan,4,5433.0,NH ND 16ft VT DW NS NR N$,AZ,31.2,N,Clifton
3989,-109.344,33.788,Horse Springs,NF,mid may-mid oct,nan,27,7661.0,NH ND 32ft VT DW NS NR L$,AZ,12.3,W,Alpine
3990,-111.717,33.977,Horseshoe,NF,nan,nan,12,1900.0,NH ND 16ft VT NW NS NR L$,AZ,15.7,NE,Carefree
3991,-109.683,34.028,Horseshoe Cienega,RES,nan,nan,70,8258.0,NH DP VT DW NS,AZ,10.4,E,McNary
3992,-109.874,32.666,Hospital Flat,NF,mid apr-mid nov,nan,10,9026.0,NH ND VT NW NS NR,AZ,15.1,SW,Safford
3993,-109.396,32.55,Hot Well Dunes,BLM,nan,nan,10,3642.0,NH ND 35ft VT NW NS NR,AZ,26.7,SE,Safford
3994,-111.32,34.271,Houston Mesa,NF,early dec-late nov,nan,30,5043.0,NH DP 30ft FT DW SH RS,AZ,2.8,N,Payson
3995,-113.879,35.097,Hualapai Mountain Park,CP,nan,nan,70,6348.0,E DP 35ft FT DW,AZ,11.7,SE,Kingman
3996,-110.803,33.324,Ice House CCC,NF,nan,nan,7,4583.0,16ft VT NW NR,AZ,5.0,S,Globe
3997,-109.161,31.898,Idlewilde,NF,mid apr-mid nov,nan,9,4964.0,NH ND 16ft VT DW NS NR L$,AZ,7.7,SW,Rodeo  NM
3999,-112.497,34.479,Indian Creek,NF,nan,nan,27,5791.0,NH 32ft DW NR,AZ,4.6,S,Prescott
4000,-111.239,33.767,Indian Point,NF,nan,nan,54,2185.0,NH ND 16ft NW NS NR L$,AZ,9.1,NW,Roosevelt
4001,-112.214,36.716,Jacob Lake,NF,mid may-mid oct,drive to North Rim,51,7933.0,NH ND 35ft VT DW NS RS,AZ,0.2,NE,Jacob Lake
4002,-109.222,31.878,John Hands,NF,nan,nan,5,5630.0,VT NW NR,AZ,11.5,SW,Rodeo NM
4003,-110.643,33.591,Jones Water,NF,nan,nan,12,4242.0,NH ND 16ft VT NW NS NR N$,AZ,15.9,NE,Globe
4004,-112.157,35.281,Kaibab Lake,NF,mid may-mid sep,nan,63,6857.0,NH DP 35ft PT DW NS NR,AZ,2.9,NE,Williams
4005,-110.347,31.817,Kartchner Caverns State Park,SP,all year,nan,62,4682.0,E DP 60ft FT DW SH RS,AZ,10.9,S,Benson
4007,-110.204,35.813,Keams Canyon Community Park,CP,nan,nan,nan,6149.0,nan,AZ,0.5,W,Keams Canyon
4008,-111.317,34.436,Kehl Springs,NF,all year,nan,8,7500.0,NH ND 22ft VT NW NS NR N$,AZ,8.2,S,Clints Well
4009,-112.277,34.175,Kentuck Springs,NF,nan,nan,15,6040.0,NH ND VT NW NS NR,AZ,4.1,SE,Crown King
4010,-111.312,34.897,Kinnikinick,NF,nan,nan,13,7067.0,NH ND 22ft VT NW NS NR,AZ,28.0,SE,Flagstaff
4011,-111.093,34.427,Knoll Lake,NF,mid may-mid oct,nan,33,7513.0,NH ND 32ft VT DW NS NR,AZ,14.1,SE,Blue Ridge
4012,-109.355,33.576,KP Cienega,NF,mid may-mid sep,nan,5,9000.0,NH ND 18ft VT DW NS NR N$,AZ,22.4,SW,Alpine
4016,-112.319,33.864,Lake Pleasant,CP,nan,no sewer hookups,150,1683.0,WE DP 40ft FT DW SH RS L$,AZ,20.1,N,Peoria
4017,-109.979,34.158,Lakeside,NF,mid may-mid nov,nan,91,6765.0,NH DP 32ft VT DW NS RS PA,AZ,0.4,NW,Lakeside
4018,-111.497,35.067,Lakeview,NF,mid may-mid oct,nan,30,6946.0,NH ND 28ft VT DW NS NR,AZ,12.3,SE,Flagstaff
4019,-110.448,31.429,Lakeview,NF,nan,nan,65,5433.0,NH ND 32ft VT DW NS NR L$,AZ,21.2,SE,Sonoita
4020,-111.604,36.86,Lees Ferry - Glen Canyon Area,NRA,nan,nan,54,3189.0,NH DP 30ft VT DW NS NR L$,AZ,3.5,NE,Marble Canyon
4021,-111.621,35.359,Lockett Meadow,NF,mid jun-mid oct,nan,17,8579.0,NH ND VT NW NS NR L$,AZ,10.9,N,Flagstaff
4022,-109.776,34.142,Los Burros,NF,mid may-mid oct,nan,10,7927.0,NH ND 22ft VT NW NS NR N$,AZ,11.3,E,Lakeside
4023,-111.481,33.464,Lost Dutchman State Park,SP,all year,$15 on weekdays,70,2070.0,WE DP 35ft FT DW SH RS,AZ,5.2,NE,Apache Junction
4024,-109.341,33.267,Lower Juan Miller,NF,nan,nan,4,5753.0,NH ND VT NW NS NR N$,AZ,15.2,N,Clifton
4025,-109.885,33.995,Lower Log,RES,nan,nan,100,6161.0,NH ND VT DW NS,AZ,5.4,S,Hon-Dah
4026,-112.46,34.455,Lower Wolf Creek,NF,mid may-mid oct,nan,20,6033.0,NH ND 40ft VT NW NS NR L$,AZ,5.9,S,Prescott
4027,-109.082,33.835,Luna Lake,NF,mid may-mid nov,nan,50,7986.0,NH ND 32ft VT DW NS RS PA L$,AZ,3.6,E,Alpine
4028,-109.376,34.359,Lyman Lake State Park,SP,all year,nan,61,6004.0,E DP 35ft FT DW SH RS L$,AZ,10.2,S,St. Johns
4029,-112.388,34.517,Lynx Lake,NF,mid apr-mid oct,nan,36,5640.0,NH ND 40ft VT DW NS NR,AZ,4.9,E,Prescott
4031,-112.12,36.05,Mather - Grand Canyon National Park,NP,all year,nan,317,7001.0,NH DP 30ft FT DW RS PA,AZ,1.2,E,Grand Canyon
4032,-109.73,34.045,McCoy Bridge,RES,nan,nan,10,7772.0,VT DW,AZ,7.5,E,McNary
4033,-111.722,33.684,McDowell Mountain,CP,nan,nan,76,1880.0,WE DP 45ft FT DW SH,AZ,5.5,N,Fountain Hills
4034,-110.645,34.968,McHood,CP,all year,nan,11,4888.0,NH DP 25ft FT DW SH N$,AZ,4.9,SE,Winslow
4037,-112.12,34.693,Mingus Mountain,NF,mid may-mid oct,steep narrow road - seek alt route,25,7657.0,E ND 22ft VT NW NS NR N$,AZ,6.4,SW,Clarkdale
4040,-110.957,34.321,Mogollon,NF,mid may-mid oct,nan,26,7671.0,NH DP 32ft VT DW NS NR,AZ,9.1,W,Forest Lakes
4041,-110.692,32.337,Molino Basin,NF,early nov-late jun,nan,37,4347.0,NH ND 22ft VT NW NS NR PA L$,AZ,15.9,NE,Tucson
4042,-110.543,36.682,Navajo National Monument,NM,all year,nan,30,7297.0,NH 27ft VT DW NS NR N$,AZ,16.3,W,Kayenta
4045,-111.051,33.308,Oak Flat,NF,nan,nan,16,3937.0,NH ND 16ft VT NW NS NR N$,AZ,2.8,E,Superior
4047,-109.309,32.967,Owl Creek,BLM,nan,nan,7,3402.0,NH ND VT DW NS NR,AZ,4.8,W,Threeway
4049,-109.535,33.773,Pacheta Lake,RES,nan,nan,10,8271.0,NH ND VT DW NS,AZ,23.1,W,Alpine
4050,-114.17,35.452,Packsaddle,BLM,nan,nan,7,6119.0,VT NW NR,AZ,19.3,N,Kingman
4052,-110.854,31.49,Patagonia Lake State Park,SP,all year,nan,72,3911.0,E DP 35ft FT DW SH RS,AZ,6.7,SW,Patagonia
4053,-110.716,32.538,Peppersauce,NF,all year,nan,17,4649.0,NH ND VT DW NS RS PA L$,AZ,5.9,SE,Oracle
4055,-111.398,32.646,Picacho Peak State Park,SP,all year,nan,85,1860.0,E DP 35ft FT DW SH RS,AZ,7.5,SE,Picacho
4056,-110.83,33.287,Pinal,NF,mid may-mid nov,nan,14,7549.0,NH ND 16ft VT NW NS NR N$,AZ,7.8,S,Globe
4057,-111.738,35.013,Pine Flat,NF,early apr-late oct,nan,56,5630.0,NH ND 30ft VT DW NS RS,AZ,10.0,N,Sedona
4058,-111.812,35.224,Pine View RV Military - Camp Navajo,MIL,nan,military only - do not use our lat/lon - contact them for directions and info,nan,7090.0,RS,AZ,1.5,SE,Bellemont
4059,-111.462,35.028,Pinegrove,NF,early may-late sep,tent pads,46,6962.0,NH DP 33ft FT DW SH RS,AZ,15.6,SE,Flagstaff
4060,-109.271,31.933,Pinery Canyon,NF,nan,rough road,4,7000.0,NH ND 16ft VT NW NS NR L$,AZ,7.7,W,Portal
4061,-110.797,33.28,Pioneer Pass,NF,mid may-mid nov,nan,20,5866.0,NH ND 16ft VT NW NS NR N$,AZ,7.9,S,Globe
4062,-111.113,34.299,Ponderosa,NF,early apr-late oct,nan,61,5709.0,NH DP 45ft FT DW NS RS,AZ,13.0,E,Payson
4063,-112.154,34.711,Potato Patch,NF,mid may-mid oct,nan,24,6978.0,E ND 40ft VT DW NS NR,AZ,6.8,SW,Clarkdale
4064,-112.069,34.578,Powell Springs,NF,nan,nan,10,5315.0,NH ND 16ft VT NW NS NR N$,AZ,12.2,W,Camp Verde
4067,-109.329,33.799,Raccoon,NF,nan,nan,10,7753.0,NH ND VT DW NS NR,AZ,11.2,W,Alpine
4068,-109.404,33.876,Rainbow,NF,mid may-mid nov,nan,161,9144.0,NH DP 42ft FT DW SH RS PA,AZ,9.7,S,Greer
4069,-110.304,31.428,Ramsey Vista,NF,mid apr-mid oct,nan,8,7421.0,NH ND 12ft VT DW NS NR L$,AZ,8.3,S,Sierra Vista
4070,-110.29,31.429,Reef Townsite,NF,mid apr-mid oct,nan,14,7182.0,NH ND 12ft VT DW NS NR L$,AZ,8.1,S,Sierra Vista
4072,-109.5,33.844,Reservation Lake,RES,nan,nan,60,9160.0,NH ND VT DW NS,AZ,20.5,W,Alpine
4073,-109.963,32.708,Riggs Flat,NF,mid apr-mid nov,nan,31,8776.0,NH ND 22ft VT NW NS NR L$,AZ,17.2,SW,Safford
4074,-110.908,34.306,Rim,NF,mid may-mid sep,nan,26,7575.0,NH DP 32ft VT DW NS NR,AZ,6.6,W,Forest Lakes
4076,-111.647,33.81,Riverside,NF,nan,nan,12,1604.0,NH ND VT NW NS NR L$,AZ,15.6,E,Carefree
4077,-109.481,32.883,Riverview,BLM,nan,nan,13,3136.0,NH ND VT DW NS NR,AZ,3.7,E,Sanchez
4078,-111.219,34.563,Rock Crossing,NF,mid may-mid sep,nan,36,7352.0,NH ND 32ft VT DW NS NR L$,AZ,2.4,SE,Blue Ridge
4079,-109.454,34.034,Rolfe C. Hoyer,NF,mid may-mid sep,nan,91,8337.0,NH DP 32ft FT DW SH NR,AZ,1.7,N,Greer
4080,-109.71,32.759,Roper Lake State Park,SP,all year,for res. call 928.428.6760,65,3123.0,E DP 45ft FT DW SH RS,AZ,5.2,S,Safford
